Tick#,offsetTime,IMU_ATTI(0):Longitude,IMU_ATTI(0):Latitude,IMU_ATTI(0):numSats,IMU_ATTI(0):barometer:Raw,IMU_ATTI(0):barometer:Smooth,IMU_ATTI(0):accel:X,IMU_ATTI(0):accel:Y,IMU_ATTI(0):accel:Z,IMU_ATTI(0):accel:Composite,IMU_ATTI(0):gyro:X,IMU_ATTI(0):gyro:Y,IMU_ATTI(0):gyro:Z,IMU_ATTI(0):gyro:Composite,IMU_ATTI(0):mag:X,IMU_ATTI(0):mag:Y,IMU_ATTI(0):mag:Z,IMU_ATTI(0):mag:Mod,IMU_ATTI(0):velN,IMU_ATTI(0):velE,IMU_ATTI(0):velD,IMU_ATTI(0):velComposite,IMU_ATTI(0):velH,IMU_ATTI(0):roll,IMU_ATTI(0):pitch,IMU_ATTI(0):yaw,IMU_ATTI(0):yawUnWrapped,IMU_ATTI(0):tiltInclination,IMU_ATTI(0):tiltDirectionEarthFrame,IMU_ATTI(0):tiltDirectionBodyFrame,IMU_ATTI(0):yaw360,IMU_ATTI(0):totalGyro:Z,IMU_ATTI(0):totalGyro:X,IMU_ATTI(0):totalGyro:Y,IMU_ATTI(0):magYaw,IMU_ATTI(0):distanceHP,IMU_ATTI(0):distanceTravelled,IMU_ATTI(0):directionOfTravel[mag],IMU_ATTI(0):directionOfTravel[true],IMU_ATTI(0):temperature,flightTime,navHealth,General:vpsHeight,General:relativeHeight,General:absoluteHeight,GPS(0):Long,GPS(0):Lat,GPS(0):Date,GPS(0):Time,GPS:dateTimeStamp,GPS(0):heightMSL,GPS(0):hDOP,GPS(0):pDOP,GPS(0):sAcc,GPS(0):numGPS,GPS(0):numGLNAS,GPS(0):numSV,GPS(0):velN,GPS(0):velE,GPS(0):velD,RC:Aileron,RC:Elevator,RC:Rudder,RC:Throttle,Controller:sig_level,Controller:mode_switch,flyCState,Controller:Aileron,Controller:Elevator,Controller:Rudder,Controller:Throttle,Controller:ctrlMode,Controller:navHealth,RC:failSafe,RC:dataLost,RC:appLost,RC:sigStrength,RC:connected,HP:Longitude,HP:Latitude,HP:rthHeight,Battery:status,SMART_BATT:goHome%,SMART_BATT:land%,SMART_BATT:goHomeTime,SMART_BATT:landTime,OA:avoidObst,OA:emergBrake,OA:radiusLimit,OA:airportLimit,OA:groundForceLanding,OA:horizNearBoundary,OA:vertLowLimit,OA:vertAirportLimit,OA:roofLimit,OA:hitGroundLimit,OA:frontDistance,MVO:velX,MVO:velY,MVO:velZ,MVO:posX,MVO:posY,MVO:posZ,MVO:hoverPointUncertainty1,MVO:hoverPointUncertainty2,MVO:hoverPointUncertainty3,MVO:hoverPointUncertainty4,MVO:hoverPointUncertainty5,MVO:hoverPointUncertainty6,MVO:velocityUncertainty1,MVO:velocityUncertainty2,MVO:velocityUncertainty3,MVO:velocityUncertainty4,MVO:velocityUncertainty5,MVO:velocityUncertainty6,MVO:height,MVO:heightUncertainty,Motor:Speed:RFront,Motor:Speed:LFront,Motor:Speed:LBack,Motor:Speed:RBack,Motor:EscTemp:RFront,Motor:EscTemp:LFront,Motor:EscTemp:LBack,Motor:EscTemp:RBack,Motor:PPMrecv:RFront,Motor:PPMrecv:LFront,Motor:PPMrecv:LBack,Motor:PPMrecv:RBack,Motor:PPMsend:RFront,Motor:PPMsend:LFront,Motor:PPMsend:LBack,Motor:PPMsend:RBack,Motor:V_out:RFront,Motor:V_out:LFront,Motor:V_out:LBack,Motor:V_out:RBack,Motor:Volts:RFront,Motor:Volts:LFront,Motor:Volts:LBack,Motor:Volts:RBack,Motor:Current:RFront,Motor:Current:LFront,Motor:Current:LBack,Motor:Current:RBack,Motor:Status:RFront,Motor:Status:LFront,Motor:Status:LBack,Motor:Status:RBack,Wind:velocity,Wind:direction,Wind:fromDir,Wind:N,Wind:E,AirComp:Alti,AirComp:MotorSpeed,AirComp:VelLevel,eventLog,flyCState,flycCommand,flightAction,nonGPSCause,compassError,connectedToRC,Battery:lowVoltage,RC:ModeSwitch,gpsUsed,visionUsed,notEnoughForce,IMUEX(0):err,IMUEX(0):rtk_Longitude,IMUEX(0):rtk_Latitude,IMUEX(0):rtk_Alti,MotorCtrl:PWM:RFront,MotorCtrl:PWM:LFront,MotorCtrl:PWM:LBack,MotorCtrl:PWM:RBack,BattInfo:Ad_v,BattInfo:r_time,BattInfo:AvgCurrent,BattInfo:vol_t,BattInfo:Pack_ve,BattInfo:Current,BattInfo:RemainingCap,BattInfo:Remaining%,BattInfo:Temp,BattInfo:right,BattInfo:l_cell,BattInfo:dyna_cnt,BattInfo:FullCap,BattInfo:out_ctl,BattInfo:out_ctl_f,AirCraftCondition:fsmState,AirCraftCondition:nearGround,AirCraftCondition:landState,Attribute|Value,ConvertDatV3,03.07.2006
0,-57.536,,,,,,,,,,,,,,,,,,,,,,,,,,,,,,,,,,,,,,,,,,,,,,,,,,,,,,,,,,,,,,,,,,,,,,,,,,,,,,,,,,,,,,,,,,,,,,,,,,,,,,,,,,,,,,,,,,,,,,,,,,,,,,,,,,,,,,,,,,,,,,,,,,,,,,,,,,,,,,,,,,,,,,,,,,,,,,,,,,,,,,,,,,,,,,,,,,,,,
12792132,-54.694,,,,,,,,,,,,,,,,,,,,,,,,,,,,,,,,,,,,,,,,,,,,,,,,,,,,,,,,,,,,,,,,,,,,,,,,,,,,,,,,,,,,,,,,,,,,,,,,,,,,,,,,,,,,,,,,,,,0,,,,,,,,,,,,,,,,,,,,,,,,,,,,,,,,,,,,,,,,,,{root}INFO:lib_route_init ok,,,,,,,,P,,,,,,,,,,,,,,,,,,,,,,,,,,,,,,Firmware Date| May 25 2017,,
18098697,-53.515,,,,,,,,,,,,,,,,,,,,,,,,,,,,,,,,,,,,,,,,,,,,,,,,,,,,,,,,,,,,,,,,,,,,,,,,,,,,,,,,,,,,,,,,,,,,,,,,,,,,,,,,,,,,,,,,,,,0,,,,,,,,,,,,,,,,,,,,,,,,,,,,,,,,,,,,,,,,,,{root}INFO:link_host_init ok.|||{root}INFO:link_init <0> link_host. ret(0x0)|||{root}INFO:link_init <1> link_pc. ret(0x0)|||{root}INFO:link_init <2> link_vo. ret(0x0)|||{root}INFO:link_init <3> link_ap. ret(0x0)|||{root}INFO:link_init <4> link_sdk. ret(0x0)|||{root}INFO:link_init <5> link_ofdm. ret(0x0)|||{root}INFO:link_init <6> link_auto_cali. ret(0x0)|||{root}INFO:link_init <7> link_manual_cali. ret(0x0)|||{root}INFO:link_init <8> link_cali_led. ret(0x0)|||      0 [L-SENSOR][ASR]sync host lead offset 0x11a|||      0 [L-SENSOR][ASR]asr host sync start|{root}INFO:[panic]:******************check fault info and trace(0) ************|||{root}INFO:[panic]:-----fault info is null: addr(0x2045e800).flag(0xb8936872)-----|||{root}INFO:[panic]:-----fault info is null: addr(0x2045e938).flag(0xd4eef779)-----|||{root}INFO:[panic]:-----all task info  is null: addr(0x2045ea70).flag(0x93f481c7)-----|||{root}INFO:[panic]:-----trace info  is null: addr(0x2045f260).flag(0x2ee03e21)-----|||{root}INFO:[panic]:******************check last trace ******************|||{root}INFO:[panic]:-----trace info  is null: addr(0x2045eca0).flag(0x19adcd70)-----|||{root}INFO:[panic]:-----wdg_time_info is null: addr(0x2045f820).flag(0xb675bc2e)-----|||      0 [L-SENSOR] hw_ver voltage: 0,,,,,,,,P,,,,,,,,,,,,,,,,,,,,,,,,,,,,,,ACType|P4A,,
22291438,-52.583,,,,,,,,,,,,,,,,,,,,,,,,,,,,,,,,,,,,,,,,,,,,,,,,,,,,,,,,,,,,,,,,,,,,,,,,,,,,,,,,,,,,,,,,,,,,,,,,,,,,,,,,,,,,,,,,,,,0,,,,,,,,,,,,,,,,,,,,,,,,,,,,,,,,,,,,,,,,,,      0 [L-SIM]read parameter successfully!,,,,,,,,P,,,,,,,,,,,,,,,,,,,,,,,,,,,,,,,,
22489930,-52.539,,,,,,,,,,,,,,,,,,,,,,,,,,,,,,,,,,,,,,,,,,,,,,,,,,,,,,,,,,,,,,,,,,,,,,,,,,,,,,,,,,,,,,,,,,,,,,,,,,,,,,,,,,,,,,,,,,,0,,,,,,,,,,,,,,,,,,,,,,,,,,,,,,,,,,,,,,,,,,      0 [L-FMU/MOTOR]read motor force disable flag successfully!|      0 [L-FMU/DM]success reg dev type  3(A3). id:2. total num:2,,,,,,,,P,,,,,,,,,,,,,,,,,,,,,,,,,,,,,,,,
22655020,-52.502,,,,,,,,,,,,,,,,,,,,,,,,,,,,,,,,,,,,,,,,,,,,,,,,,,,,,,,,,,,,,,,,,,,,,,,,,,,,,,,,,,,,,,,,,,,,,,,,,,,,,,,,,,,,,,,,,,,0,,,,,,,,,,,,,,,,,,,,,,,,,,,,,,,,,,,,,,,,,,      0 [L-SENSOR][ASR]need re sync host load_offset. freq=0x190|||      0 [L-SENSOR][ASR]need re sync host load_offset. freq=0x190|||      0 [L-SENSOR][ASR]need re sync host load_offset. freq=0x190|||      0 [L-SENSOR][ASR]need re sync host load_offset. freq=0x190|||      0 [L-SENSOR]imu group0 ok|      0 [L-GYRO_ACC]imu_0 group->sensor_id:e3718e |      0 [L-GYRO_ACC]turn on temp ctrl(0). cur_temp:-50.0. reason:temp ctrl core init|      0 [L-GYRO_ACC]turn on temp ctrl(0). cur_temp:0.0. reason:gyro_acc_tmp_ctl_init|      0 [L-SENSOR][ASR]sync host lead offset 0x11a|||      0 [L-GYRO_ACC]fitler-angular_vel. cheby2_config_7th|      0 [L-GYRO_ACC]fz: 200.000000 hz.30.000000 dB|      0 [L-SENSOR][ASR]asr host sync start|      0 [L-GYRO_ACC]fitler-linear_acc. butter_config_3rd_z2|      0 [L-GYRO_ACC] fp= 16.000000 hz; fz=100.000000 hz fs=2000.000000|      0 [L-GYRO_ACC]bandpass: fp= 50.000000 hz; fs=350.000000 hz; sample=2000.000000|      0 [L-FDI][IMU]0 dir ok 1.000000 0.000000 0.000000 0.000000 1.000000 0.000000 0.000000 0.|      0 [L-FDI][IMU]0 mis cali ok|      0 [L-FDI][IMU]0 level 1&2 temp cali ok|      0 [L-FDI][IMU]0 base cali ok aa aa|      0 [L-FDI][IMU]0 cali ver ok 4 4 ff 6|      0 [L-FMU/DM]success reg dev type  8(gyro_acc0). id:3. total num:3|      0 [L-SENSOR]imu group2 ok|      0 [L-GYRO_ACC]imu_2 group->sensor_id:20e3718e |      0 [L-GYRO_ACC]turn on temp ctrl(1). cur_temp:-50.0. reason:temp ctrl core init|      0 [L-GYRO_ACC]turn on temp ctrl(1). cur_temp:0.0. reason:gyro_acc_tmp_ctl_init|      0 [L-GYRO_ACC]fitler-angular_vel. cheby2_config_7th|      0 [L-GYRO_ACC]fz: 200.000000 hz.30.000000 dB|      0 [L-GYRO_ACC]fitler-linear_acc. butter_config_3rd_z2|      0 [L-GYRO_ACC] fp= 16.000000 hz; fz=100.000000 hz fs=2000.000000|      0 [L-GYRO_ACC]bandpass: fp= 50.000000 hz; fs=350.000000 hz; sample=2000.000000|      0 [L-FDI][IMU]1 dir ok 1.000000 0.000000 0.000000 0.000000 1.000000 0.000000 0.000000 0.|      0 [L-FDI][IMU]1 mis cali ok|      0 [L-FDI][IMU]1 level 1&2 temp cali ok|      0 [L-FDI][IMU]1 base cali ok aa aa|      0 [L-FDI][IMU]1 cali ver ok 4 4 ff 6|      0 [L-FMU/DM]success reg dev type  8(gyro_acc2). id:4. total num:4|      0 [L-SENSOR]baro group0 ok|      0 [L-FMU/DM]success reg dev type  9(baro0). id:5. total num:5|      0 [L-SENSOR]compass group2 ok|      0 [L-FMU/DM]success reg dev type 10(compass0). id:6. total num:6|      0 [L-SENSOR]compass group3 ok|      0 [L-FMU/DM]success reg dev type 10(compass0). id:7. total num:7|      0 [L-FMU/DM]success reg dev type  4(imu0_local). id:8. total num:8|      0 [L-FMU/DM]success reg dev type 19(rc0). id:9. total num:9|      0 [L-FMU/DM]success reg dev type 15(zenmus0). id:10. total num:10|      0 [L-FMU/DM]success reg dev type 14(camera0). id:11. total num:11|      0 [L-FMU/DM]success reg dev type 12(vo0). id:12. total num:12|      0 [L-FMU/DM]success reg dev type 11(ultrasonic0). id:13. total num:13|      0 [L-GPS]<AGPS INFO>comm agps init.agps mode :HOST-BASE|      0 [L-SDK][USER] api cfg load success (BR:921600)!|||      0 [L-FMU/DM]success reg dev type 22(sdk0). id:14. total num:14|      0 [L-BATTERY]-------comm_bat_init-------|      0 [L-FMU/DM]success reg dev type 26(battery0). id:15. total num:15|      0 [L-BATTERY]bat_auth_origa_init|      0 [L-BATTERY]bat_auth_origa_stop|      0 [L-FMU/DM]success reg dev type 32(wristband0). id:16. total num:16|      0 [L-FMU/DM]success reg dev type 33(headset0). id:17. total num:17|      0 [L-PWM]actuator_cfg_changed![ACTUATOR_0]|      0 [L-PWM]actuator_cfg_changed![ACTUATOR_1]|      0 [L-PWM]actuator_cfg_changed![ACTUATOR_2]|      0 [L-PWM]actuator_cfg_changed![ACTUATOR_3]|      0 [L-PWM]actuator_cfg_changed![ACTUATOR_4]|      0 [L-PWM]actuator_cfg_changed![ACTUATOR_5]|      0 [L-PWM]actuator_cfg_changed![ACTUATOR_6]|      0 [L-PWM]actuator_cfg_changed![ACTUATOR_7]|      0 [L-PWM]set actuator mode:IDLE|      0 [L-PWM]f_chl_cfg changed!|      0 [L-FMU/DM]success reg dev type 17(). id:18. total num:18|      0 [L-FMU/DM]success reg dev type  0(esc4). id:19. total num:19|      0 [L-FMU/DM]success reg dev type 16(GEAR). id:20. total num:20|      0 [L-FMU/DM]success reg dev type 24(DROPSAFE). id:21. total num:21|      0 [L-FMU/DM]success reg dev type 34(PITOT). id:22. total num:22|      0 [L-DBG1][Init]Init ok:|      0 [L-DBG1][Init]HF task : 400Hz @ mode2|      0 [L-DBG1][Init]LF task : 50Hz @ mode0|      0 [L-DBG1][Init]Tail: 400Hz Atti: 200Hz|      0 [L-DBG1][Init]Init ok:|      0 [L-DBG1][Init]MF task : 200Hz @ mode4|      0 [L-USER][USER]Read user config!|      0 [L-USER][USER]Read statistical info!|      0 [L-USER][USER]Read statistical info!,,,,,,,,P,,,,,,,,,,,,,,,,,,,,,,,,,,,,,,,,
22811849,-52.467,,,0,0,0,-0.040304143,-2.71E-06,-0.88979745,0.8907098,0.71755064,-1.4009684,-0.57275385,1.675004,-27,-176,504,534,0,0,0,0,0,NaN,0,0,0,NaN,NaN,NaN,0,-0.033916593,0.025682511,-0.048724054,NaN,,0,,,0,,,,,,,,,,,,,,,,,,,,,0,0,0,0,0,0,Manual,0,0,0,0,Manual,0,,,,,,,,,,,,,,,,,,,,,,,,,,,,,,,,,,,,,,,,,,,0,,,,,,,,,,,,,,,,,,,,,,,,,,,,,,,,,,0,0,180,0,0,0,0,0,{root}INFO:reset by power.|||{root}INFO:iwdg_set_time_out time_out(0x00000a23)!|{root}INFO:wdg_set_swdg_time_out time_out(2595) set g_swdg_timeout_max(480) |||{root}INFO:watchdog enable.|||      0 [L-SENSOR][ASR]ASR sync start(start).phase lead = 0|      0 [L-GPS]<GPS INFO>m8_poll_uniqid gps[0][0]|      0 [L-GPS]<GPS ERROR>m8 uid not received!|      0 [L-SDK][USER] Init_dji_api_protocol start!|||      0 [L-SDK][USER] Baud_rate: 921600 |||      0 [L-SDK][USER]----------start sdk protocol ---------|||      0 [L-CTRL]horiz vel complement filter fc:0.300000|      0 [L-CTRL]vert vel complement filter fc:0.300000|      0 [L-NS][AHRS] baro abp : 0.100000|      0 [L-NS][AHRS] baro a   : 0.998000|      0 [L-NS][AHRS] baro v   : 0.620000|      0 [L-NS][AHRS] baro p   : 0.680000|      0 [L-NS][AHRS] mag_gain: 100|      0 [L-NS][AHRS]  fs_gnss_hp        :  1|      0 [L-NS][AHRS]  fs_gnss_hv        :  1|      0 [L-NS][AHRS]  fs_gnss_vp        :  1|      0 [L-NS][AHRS]  fs_vodm_hp        :  1|      0 [L-NS][AHRS]  fs_vodm_hv        :  1|      0 [L-NS][AHRS]  fs_vodm_vp        :  1|      0 [L-NS][AHRS]  fs_vodm_vv        :  1|      0 [L-NS][AHRS]  fs_vodm_vh        :  1|      0 [L-NS][AHRS]  fs_usnc_vp        :  1|      0 [L-NS][AHRS]  fs_baro_vp        :  1|      0 [L-NS][AHRS]  fs_magn_yaw       :  1|      0 [L-NS][AHRS]  dlt_gnss_hp       : 35|      0 [L-NS][AHRS]  dlt_gnss_hv       : 55|      0 [L-NS][AHRS]  dlt_gnss_vp       : 35|      0 [L-NS][AHRS]  dlt_gnss_vv       : 55|      0 [L-NS][AHRS]  dlt_vodm_hp       :  4|      0 [L-NS][AHRS]  dlt_vodm_hv       :  4|      0 [L-NS][AHRS]  dlt_vodm_vp       :  4|      0 [L-NS][AHRS]  dlt_vodm_vv       :  4|      0 [L-NS][AHRS]  dlt_vodm_vh       :  4|      0 [L-NS][AHRS]  dlt_rtks_hp_p     : 60|      0 [L-NS][AHRS]  dlt_rtks_hp_s     : 60|      0 [L-NS][AHRS]  dlt_rtks_hv       : 60|      0 [L-NS][AHRS]  dlt_rtks_vp_p     : 40|      0 [L-NS][AHRS]  dlt_rtks_vp_s     : 60|      0 [L-NS][AHRS]  dlt_rtks_vv       : 60|      0 [L-NS][AHRS]  dlt_rtks_yaw      : 60|      0 [L-NS][AHRS]  dlt_magn_yaw      :  5|      0 [L-NS][AHRS]  thermostatic_temp : 65|      0 [L-NS][AHRS]  ground_effect_ht  : 50|      0 [L-NS][AHRS] Rgps:0.000.0.000.-0.030|||      0 [L-NS][AHRS] Rimu:0.023.0.013.-0.014|||      0 [L-NS][AHRS]version: V3_20161218_[09]|{task_d}INFO:fat set time: year:2020 month:8 day:5 hour:14 minute:25 sec:46|{task_d}INFO:dyn_map_mem_init input:0x2040fcb0.0x204114b0.0x800.|||{task_d}INFO:dyn_map_mem_init ok:0x204114b0.0x20.0x40.|||      0 [L-DEV]recorder level0 send name and header len=256|||{task_d}INFO:fat set time: year:2020 month:8 day:5 hour:14 minute:25 sec:46|      0 [L-CMD]call exec_fc_v2_special_function|      0 [L-CMD]call exec_fc_v2_special_function,,,,,,,,P,,,,GPS_CONSIST_ERROR,0,0,0,,,,,,,,,,,,,,,,,,,,0,FALSE,0,,,
22969603,-52.432,,,0,0,0,-0.033226307,-0.012676433,-1.0082096,1.0088365,-0.44678083,-1.0222843,-0.645155,1.2887603,-93,-197,1530,1545,0,0,0,0,0,NaN,0,0,0,NaN,NaN,NaN,0,-0.062735864,0.010763961,-0.076460202,NaN,,0,,,0,,,,,,,,,,,,,,,,,,,,,0,0,0,0,0,0,Manual,0,0,0,0,Manual,0,Hover,,lost,0,Disconnected,,,,,,,,,,,,,,,,,,,,,,,,,,,,,,,,,,,,,,0,,,,,,,,,,,,,,,,,,,,,,,,,,,,,,,,,,0,0,180,0,0,0,0,0,      1 [L-RC]rc type 0 => 1|      1 [L-RC]read flash success. cur type:1|      1 [L-RC]>364 1024 1684|      1 [L-RC]>364 1024 1684|      1 [L-RC]>364 1024 1684|      1 [L-RC]>364 1024 1684|      1 [L-RC]first config rc|      1 [L-FMU/MOTOR]esc err. status:0|      1 [L-FMU/MOTOR]fault on . esc(1) is disconnect|      1 [L-FMU/MOTOR]fault on . esc(2) is disconnect|      1 [L-FMU/MOTOR]fault on . esc(3) is disconnect|      1 [L-FMU/MOTOR]fault on . esc(4) is disconnect|      1 [L-BATTERY]lowpass filter config : fc = 0.5 fs = 50|      1 [L-IMU]set imu switch level = 1|      1 [L-COMPASS][frame cali data] version invalid|      1 [L-COMPASS][cur cali data]fmu:0.user:0.current cali data invalid|      1 [L-COMPASS][cur cali data]fmu:1.user:1.current cali data invalid|      1 [L-COMPASS][read app cali data]mask:14721.version:16.flag:1 1 255.user_flag:1|      1 [L-COMPASS][read load data] in user index mode|      1 [L-COMPASS][read app cali data]fmu:0.user:0.scale:[ 2.679  2.570  2.580]|      1 [L-COMPASS][read app cali data]fmu:0.user:0.bias:[-20.986 257.797 223.055]|      1 [L-COMPASS][read app cali data]fmu:1.user:1.scale:[ 2.746  2.712  2.505]|      1 [L-COMPASS][read app cali data]fmu:1.user:1.bias:[29.072 250.632 354.607]|      1 [L-FDI]GPS(0): disconnect|      1 [L-DBG1]read gps date:20200805|      1 [L-SEND DATA]app connect changed:last(255) != current(0)|      1 [L-SEND DATA]assistant connect changed:last(255) != current(0)|      1 [L-CFG]lock_assistant|      1 [L-SEND DATA]lock assistant!|      1 [L-FMU/LED]action changed. Normal Flash(0)|      1 [L-FMU/LED]type:0. normal flash action:|      1 [L-FMU/LED]c0:0.15;c1:0.3;c2:0.13;c3:7.3;c4:0.10;c5:7.3;c6:0.10;c7:0.3|      1 [L-FMU/LED]action changed. Normal Flash(0)|      1 [L-FDI]NS(0): evaluation fdi turn on|      1 [L-FDI][FDI CTRL] event: turn on|      1 [L-FDI][FDI CTRL] event: takeoff turn on|      1 [L-FDI][FDI CTRL] event: takeoff turn on|      2 [L-SENSOR][ASR]ASR Delay calibration: 190/200,,,,,,,,P,,,,GPS_CONSIST_ERROR,0,0,0,,,,,0,0,0,0,0,0,0,0,0,1,0,0,0,0,0,0,FALSE,0,,,
23127057,-52.397,,,0,0,0,-0.035907473,-0.008840831,-0.9949251,0.9956121,-1.73425,1.0212799,-0.5933741,2.098268,-69,-197,1520,1534,0,0,0,0,0,NaN,0,0,0,NaN,NaN,NaN,0,-0.09626743,-0.008468798,-0.098886396,NaN,,0,,,32.47,0,0,,,,,,,,,,,,,,,,,,,0,0,0,0,0,0,Manual,0,0,0,0,Manual,0,Hover,,lost,0,Disconnected,,,,,,,,,,,,,,,,,,,,,,,,,,,,,,,,,,,,,,0,,,,,,,,,,,,,,,,,,,,,,,,,,,,,,,,,,0,0,180,0,0,0,0,0,,Manual,OTHER,NONE,GPS_POSITION_NONMATCH,TRUE,Connected,,P,FALSE,FALSE,FALSE,GPS_CONSIST_ERROR,0,0,0,,,,,4.104,0,0,0,0,0,0,0,0,1,0,0,0,0,0,0,FALSE,0,,,
23280089,-52.363,,,0,0,0,-0.037960377,-0.00416516,-1.0014969,1.0022247,-0.8243422,-0.27457175,-0.29625213,0.9179842,-93,-197,1530,1545,0,0,0,0,0,NaN,0,0,0,NaN,NaN,NaN,0,-0.125999947,-0.037297188,-0.100280837,NaN,,0,,,32.51,0,0,,,,,,,,,,,,,,,,,,,0,0,0,0,0,0,Manual,0,0,0,0,Manual,0,Hover,,lost,0,Disconnected,,,,,,,,,,,,,,,,,,,,,,,,,,,,,,,,,,,,,,0,,,,,,,,,,,,,,,,,,,,,,,,,,,,,,,,,,0,0,180,0,0,0,0,0,,Manual,OTHER,NONE,GPS_POSITION_NONMATCH,TRUE,Connected,,P,FALSE,FALSE,FALSE,GPS_CONSIST_ERROR,0,0,0,,,,,5.425,0,0,0,0,0,0,0,0,1,0,0,0,0,0,0,FALSE,0,,,
23442101,-52.327,,,0,0,0,-0.0336311,-5.29E-05,-1.0019796,1.0025438,-0.83292556,1.2377464,-0.61414784,1.6133686,-93,-197,1530,1545,0,0,0,0,0,NaN,0,0,0,NaN,NaN,NaN,0,-0.16749436,-0.069952615,-0.103113518,NaN,,0,,,32.54,0,0,,,,,,,,,,,,,,,,,,,0,0,0,0,0,0,Manual,0,0,0,0,Manual,0,Hover,,lost,0,Disconnected,,,,,,,,,,,,,,,,,,,,,,,,,,,,,,,,,,,,,,0,,,,,,,,,,,,,,,,,,,,,,,,,,,,,,,,,,0,0,180,0,0,0,0,0,      7 [L-ACTIVATION]get version,Manual,OTHER,NONE,GPS_POSITION_NONMATCH,TRUE,Connected,,P,FALSE,FALSE,FALSE,GPS_CONSIST_ERROR,0,0,0,,,,,7.615,0,0,0,0,0,0,0,0,1,0,0,0,0,0,0,FALSE,0,,,
23599570,-52.292,,,0,0,0,-0.01926296,-0.004697274,-1.0050845,1.0052801,-0.7778224,-1.7077157,-2.0165288,2.754576,-85,-197,1530,1544,0,0,0,0,0,NaN,0,0,0,NaN,NaN,NaN,0,-0.19988727,-0.090038393,-0.118166972,NaN,,0,,,32.53,0,0,,,,,,,,,,,,,,,,,,,0,0,0,0,0,0,Manual,0,0,0,0,Manual,0,Hover,,lost,0,Disconnected,,,,,,,,,,,,,,,,,,,,,,,,,,,,,,,,,,,,,,0,,,,,,,,,,,,,,,,,,,,,,,,,,,,,,,,,,0,0,180,0,0,0,0,0,      9 [L-ACTIVATION]send index:0 send id:2 get info. state:1. date:2017-10-27. time:11-18-59,Manual,OTHER,NONE,GPS_POSITION_NONMATCH,TRUE,Connected,,P,FALSE,FALSE,FALSE,GPS_CONSIST_ERROR,0,0,0,,,,,9.316,0,0,0,0,0,0,0,0,1,0,0,0,0,0,0,FALSE,0,,,
23906542,-52.224,,,0,0,0,-0.046212662,-0.001637704,-1.0009696,1.0020372,-1.5009078,1.8059667,-0.19837002,2.3566058,-98,-202,1507,1523,0,0,0,0,0,NaN,0,0,0,NaN,NaN,NaN,0,-0.245067213,-0.120925583,-0.119811189,NaN,,0,,,32.53,0,0,,,,,,,,,,,,,,,,,,,0,0,0,0,0,0,Manual,0,0,0,0,Manual,0,Hover,,lost,0,Disconnected,,,,,,,,,,,,,,,,,,,,,,,,,,,,,,,,,,,,,,0,,,,,,,,,,,,,,,,,,,,,,,,,,,,,,,,,,0,0,180,0,0,0,0,0,     11 [L-FDI]GPS(0): reconnect|     11 [L-ACTIVATION]send index:0 send id:2 get info. state:1. date:2017-10-27. time:11-18-59,Manual,OTHER,NONE,GPS_POSITION_NONMATCH,TRUE,Connected,,P,FALSE,FALSE,FALSE,GPS_CONSIST_ERROR,0,0,0,,,,,10.636,0,0,0,0,0,0,0,0,1,0,0,0,0,0,0,FALSE,0,,,
24094962,-52.182,,,0,0,0,-0.04605512,0.001786382,-1.0084049,1.0094576,-0.9787975,0.54828507,-0.10819424,1.1271056,-90,-202,1505,1521,0,0,0,0,0,NaN,0,0,0,NaN,NaN,NaN,0,-0.251291864,-0.171274898,-0.072009151,NaN,,0,,,32.53,0,0,,,,,,,,,,,,,,,,,,,0,0,0,0,0,0,Manual,0,0,0,0,Manual,0,Hover,,lost,0,Disconnected,,,,,,,,,,,,,,,,,,,,,,,,,,,,,,,,,,,,,,0,,,,,,,,,,,,,,,,,,,,,,,,,,,,,,,,,,0,0,180,0,0,0,0,0,     12 [L-DBG1]save uuid to flash,Manual,OTHER,NONE,GPS_POSITION_NONMATCH,TRUE,Connected,,P,FALSE,FALSE,FALSE,GPS_CONSIST_ERROR,0,0,0,,,,,10.636,0,0,0,0,0,0,0,0,1,0,0,0,0,0,0,FALSE,0,,,
24255951,-52.146,,,0,0,0,-0.024665574,-0.001554312,-1.001867,1.0021719,-0.80840784,0.10590227,-0.057731934,0.8173564,-98,-202,1515,1531,0,0,0,0,0,NaN,0,0,0,NaN,NaN,NaN,0,-0.364412704,-0.22842727,-0.083866531,NaN,,0,,,32.51,0,0,,,,,,,,,,,,,,,,,,,0,0,0,0,0,0,Manual,0,0,0,0,Manual,0,Hover,,lost,0,Disconnected,,,,,,,,,,,,,,,,,,,,,,,,,,,,,,,,,,,,,,0,,,,,,,,,,,,,,,,,,,,,,,,,,,,,,,,,,0,0,180,0,0,0,0,0,     13 [L-CFG]can't find var in opentable when read. hash:6ad4c516,Manual,OTHER,NONE,GPS_POSITION_NONMATCH,TRUE,Connected,,P,FALSE,FALSE,FALSE,GPS_CONSIST_ERROR,0,0,0,,,,,11.662,0,0,0,0,0,0,0,0,1,0,0,0,0,0,0,FALSE,0,,,
24406222,-52.113,,,0,0,0,-0.031163523,0.00321149,-0.9998681,1.0003587,0.12733838,-0.6994993,-2.0849578,2.2028537,-87,-202,1512,1527,0,0,0,0,0,NaN,0,0,0,NaN,NaN,NaN,0,-0.370900543,-0.244530531,-0.089295548,NaN,,0,,,32.48,0,0,,,,,,,,,,,,,,,,,,,0,0,0,0,0,0,Manual,0,0,0,0,Manual,0,Hover,,lost,0,Disconnected,,,,,,,,,,,,,,,,,,,,,,,,,,,,,,,,,,,,,,0,,,,,,,,,,,,,,,,,,,,,,,,,,,,,,,,,,0,0,180,0,0,0,0,0,,Manual,OTHER,NONE,GPS_POSITION_NONMATCH,TRUE,Connected,,P,FALSE,FALSE,FALSE,GPS_CONSIST_ERROR,0,0,0,,,,,12.085,0,0,0,0,0,0,0,0,1,0,0,0,0,0,0,FALSE,0,,,
24570819,-52.076,,,0,0,0,-0.036071777,-0.025633756,-1.0128397,1.013806,-1.1997185,0.8727048,0.19178966,1.4959015,-87,-202,1512,1527,0,0,0,0,0,NaN,0,0,0,NaN,NaN,NaN,0,-0.434738436,-0.285088987,-0.088277016,NaN,,0,,,32.49,0,0,,,,,,,,,,,,,,,,,,,0,0,0,0,0,0,Manual,0,0,0,0,Manual,0,Hover,,lost,0,Disconnected,,,,,,,,,,,,,,,,,,,,,,,,,,,,,,,,,,,,,,0,,,,,,,,,,,,,,,,,,,,,,,,,,,,,,,,,,0,0,180,0,0,0,0,0,,Manual,OTHER,NONE,GPS_POSITION_NONMATCH,TRUE,Connected,,P,FALSE,FALSE,FALSE,GPS_CONSIST_ERROR,0,0,0,,,,,12.787,0,0,0,0,0,0,0,0,1,0,0,0,0,0,0,FALSE,0,,,
24728636,-52.041,,,0,0,0,-0.018916974,0.027072603,-0.9944327,0.994981,0.757933,-1.1863753,-2.1442926,2.565139,-98,-202,1507,1523,0,0,0,0,0,NaN,0,0,0,NaN,NaN,NaN,0,-0.486183521,-0.312185132,-0.10419797,NaN,,0,,,32.52,0,0,,,,,,,,,,,,,,,,,,,0,0,0,0,0,0,Manual,0,0,0,0,Manual,0,Hover,,lost,0,Disconnected,,,,,,,,,,,,,,,,,,,,,,,,,,,,,,,,,,,,,,0,,,,,,,,,,,,,,,,,,,,,,,,,,,,,,,,,,0,0,180,0,0,0,0,0,     18 [L-SYS]set_real_name_info.data: 1596630391. flag: ad. len:14 14,Manual,OTHER,NONE,GPS_POSITION_NONMATCH,TRUE,Connected,,P,FALSE,FALSE,FALSE,GPS_CONSIST_ERROR,0,0,0,,,,,13.077,0,0,0,0,0,0,0,0,1,0,0,0,0,0,0,FALSE,0,,,
24885935,-52.006,,,0,0,0,-0.031220173,-0.015585477,-1.0091408,1.0097439,-0.39737368,0.14400485,-1.0765661,1.1565629,-87,-202,1512,1527,0,0,0,0,0,NaN,0,0,0,NaN,NaN,NaN,0,-0.499630406,-0.324646135,-0.112125032,NaN,,0,,,32.54,0,0,,,,,,,,,,,,,,,,,,,0,0,0,0,0,0,Manual,0,0,0,0,Manual,0,Hover,,lost,0,Disconnected,,,,,,,,,,,,,,,,,,,,,,,,,,,,,,,,,,,,,,0,,,,,,,,,,,,,,,,,,,,,,,,,,,,,,,,,,0,0,180,0,0,0,0,0,,Manual,OTHER,NONE,GPS_POSITION_NONMATCH,TRUE,Connected,,P,FALSE,FALSE,FALSE,GPS_CONSIST_ERROR,0,0,0,,,,,13.559,0,0,0,0,0,0,0,0,1,0,0,0,0,0,0,FALSE,0,,,
25036203,-51.973,,,0,0,0,-0.030880569,-0.016914345,-1.0042061,1.0048231,-1.0799022,-0.20678008,-1.1332209,1.5789669,-82,-212,1505,1522,0,0,0,0,0,NaN,0,0,0,NaN,NaN,NaN,0,-0.566761453,-0.353916194,-0.115424787,NaN,,0,,,32.53,0,0,,,,,,,,,,,,,,,,,,,0,0,0,0,0,0,Manual,0,0,0,0,Manual,0,Hover,,lost,100,Disconnected,,,,,,,,,,,,,,,,,,,,,,,,,,,,,,,,,,,,,,0,,,,,,,,,,,,,,,,,,,,,,,,,,,,,,,,,,0,0,180,0,0,0,0,0,,Manual,OTHER,NONE,GPS_POSITION_NONMATCH,TRUE,Connected,,P,FALSE,FALSE,FALSE,GPS_CONSIST_ERROR,0,0,0,,,,,13.758,0,0,0,0,0,0,0,0,1,0,0,0,0,0,0,FALSE,0,,,
25200854,-51.936,,,0,0,0,-0.015145108,0.009012019,-0.9963256,0.9964815,0.13524635,-1.2528968,-2.3830986,2.6957746,-87,-202,1512,1527,0,0,0,0,0,NaN,0,0,0,NaN,NaN,NaN,0,-0.591276585,-0.381838438,-0.120584437,NaN,,0,,,32.53,0,0,,,,0,0,0,0,,,99.99,99.99,3.75E+07,0,0,0,,,,0,0,0,0,0,0,Manual,0,0,0,0,Manual,0,Hover,,lost,100,Disconnected,,,,,,,,,,,,,,,,,,,,,,,,,,,,,,,,,,,,,,0,,,,,,,,,,,,,,,,,,,,,,,,,,,,,,,,,,0,0,180,0,0,0,0,0,,Manual,OTHER,NONE,GPS_POSITION_NONMATCH,TRUE,Connected,,P,FALSE,FALSE,FALSE,GPS_CONSIST_ERROR,0,0,0,,,,,14.089,0,0,0,0,0,0,0,0,1,0,0,0,0,0,0,FALSE,0,,,
25358640,-51.901,,,0,45.094368,0,-0.032911714,-0.010094522,-0.99141425,0.9920117,-0.89878345,-0.5601919,-0.5791439,1.2070768,-87,-202,1512,1527,0,0,0,0,0,NaN,0,0,0,NaN,NaN,NaN,0,-0.6345174,-0.391920905,-0.145196245,NaN,,0,,,32.51,0,0,,,,0,0,0,0,,,99.99,99.99,3.75E+07,0,0,0,,,,0,0,0,0,0,0,Manual,0,0,0,0,Manual,0,Hover,,lost,100,Disconnected,,,,,,,,,,,,,,,,,,,,,,,,,,,,,,,,,,,,,,0,,,,,,,,,,,,,,,,,,,,,,,,,,,,,,,,,,0,0,180,0,0,0,0,0,     25 [L-SENSOR][baro(0)] connect|     25 [L-SENSOR][baro(0)] reset filter: 100.8 fc: 30.0 hz 30.0 30.0 1,Manual,OTHER,NONE,GPS_POSITION_NONMATCH,TRUE,Connected,,P,FALSE,FALSE,FALSE,GPS_CONSIST_ERROR,0,0,0,,,,,14.348,0,0,0,0,0,0,0,0,1,0,0,0,0,0,0,FALSE,0,,,
25516123,-51.866,,,0,44.13743,0,-0.0302316,0.004902265,-1.0060549,1.006521,-0.10560173,-0.56400067,-1.160039,1.2941943,-79,-202,1512,1527,0,0,0,0,0,NaN,0,0,0,NaN,NaN,NaN,0,-0.684602337,-0.426190227,-0.138325002,NaN,,0,,,32.5,0,0,,,,0,0,0,0,,,99.99,99.99,3.75E+07,0,0,0,,,,0,0,0,0,0,0,Manual,0,0,0,0,Manual,0,Hover,,lost,100,Disconnected,,,,,,,,,,,,,,,,,,,,,,,,,,,,,,,,,,,,,,0,,,,,,,,,,,,,,,,,,,,,,,,,,,,,,,,,,0,0,180,0,0,0,0,0,     25 [L-GPS]<GPS INFO>m8_poll_uniqid gps[0][0]|     25 [L-GPS]<GPS INFO>[SEC] need check hardware-id version||     26 [L-GPS]<GPS INFO>m8_uniqid: gps[0][0]|{task_ctrl}INFO:22. F572DC6432||,Manual,OTHER,NONE,GPS_POSITION_NONMATCH,TRUE,Connected,,P,FALSE,FALSE,FALSE,GPS_CONSIST_ERROR,0,0,0,,,,,14.549,0,0,0,0,0,0,0,0,1,0,0,0,0,0,0,FALSE,0,,,
25666371,-51.833,,,0,44.17157,0,-0.01522896,-9.40E-04,-1.0014743,1.0015905,-0.6190795,-1.3114518,-1.7843386,2.299354,-98,-202,1515,1531,0,0,0,0,0,NaN,0,0,0,NaN,NaN,NaN,0,-0.707097459,-0.433408655,-0.164440381,NaN,,0,,,32.52,0,0,,,,0,0,20151018,0,,,99.99,99.99,3.75E+07,0,0,0,,,,0,0,0,0,0,0,Manual,0,0,0,0,Manual,0,Hover,,lost,100,Disconnected,,,,,,,,,,,,,,,,,,,,,,,,,,,,,,,,,,,,,,0,,,,,,,,,,,,,,,,,,,,,,,,,,,,,,,,,,0,0,180,0,0,0,0,0,     28 [L-GPS]<GPS ERROR>[0][0] frequency error 42,Manual,OTHER,NONE,GPS_POSITION_NONMATCH,TRUE,Connected,,P,FALSE,FALSE,FALSE,GPS_CONSIST_ERROR,0,0,0,,,,,14.632,0,0,0,0,0,0,0,0,1,0,0,0,0,0,0,FALSE,0,,,
25830892,-51.796,,,0,43.2704,0,-0.027894529,-2.71E-04,-1.0131695,1.0135535,-0.3801361,-0.9521954,-0.9208222,1.3780758,-85,-202,1520,1535,0,0,0,0,0,NaN,0,0,0,NaN,NaN,NaN,0,-0.756790468,-0.447123087,-0.178179721,NaN,,0,,,32.49,0,0,,,,0,0,20151018,0,,,99.99,99.99,3.75E+07,0,0,0,,,,0,0,0,0,0,0,Manual,0,0,0,0,Manual,0,Hover,,lost,100,Disconnected,,,,,,,,,,,,,,,,,,,,,,,,,,,,,,,,,,,,,,0,,,,,,,,,,,,,,,,,,,,,,,,,,,,,,,,,,0,0,180,0,0,0,0,0,,Manual,OTHER,NONE,GPS_POSITION_NONMATCH,TRUE,Connected,,P,FALSE,FALSE,FALSE,GPS_CONSIST_ERROR,0,0,0,,,,,14.771,0,0,0,0,0,0,0,0,1,0,0,0,0,0,0,FALSE,0,,,
25988633,-51.761,,,0,43.69875,0,-0.028972922,-0.001462123,-0.9961354,0.9965578,-0.31308222,-0.5263652,-1.0366805,1.2040712,-87,-209,1512,1528,0,0,0,0,0,NaN,0,0,0,NaN,NaN,NaN,0,-0.814837658,-0.466636998,-0.192126595,NaN,,0,,,32.48,0,0,,,,0,0,20151018,0,,,99.99,99.99,3.75E+07,0,0,0,,,,0,0,0,0,0,0,Manual,0,0,0,0,Manual,0,Hover,,lost,100,Disconnected,,,,,,,,,,,,,,,,,,,,,,,,,,,,,,,,,,,,,,0,,,,,,,,,,,,,,,,,,,,,,,,,,,,,,,,,,0,0,180,0,0,0,0,0,,Manual,OTHER,NONE,GPS_POSITION_NONMATCH,TRUE,Connected,,P,FALSE,FALSE,FALSE,GPS_CONSIST_ERROR,0,0,0,,,,,14.878,0,0,0,0,0,0,0,0,1,0,0,0,0,0,0,FALSE,0,,,
26145912,-51.726,,,0,44.24916,0,-0.025461925,0.001187193,-0.9912964,0.99162406,-0.086875536,-0.16097116,-1.6663381,1.6763477,-87,-202,1512,1527,0,0,0,0,0,NaN,0,0,0,NaN,NaN,NaN,0,-0.842059276,-0.46533015,-0.219045708,NaN,,0,,,32.46,0,0,,,,0,0,20151018,0,,,99.99,99.99,3.75E+07,0,0,0,,,,0,0,0,0,0,0,Manual,0,0,0,0,Manual,0,Hover,,lost,100,Disconnected,,,,,,,,,,,,,,,,,,,,,,,,,,,,,,,,,,,,,,0,,,,,,,,,,,,,,,,,,,,,,,,,,,,,,,,,,0,0,180,0,0,0,0,0,,Manual,OTHER,NONE,GPS_POSITION_NONMATCH,TRUE,Connected,,P,FALSE,FALSE,FALSE,GPS_CONSIST_ERROR,0,0,0,,,,,14.961,0,0,0,0,0,0,0,0,1,0,0,0,0,0,0,FALSE,0,,,
26296154,-51.693,,,0,43.759792,0,-0.026369672,-0.006215314,-1.0046649,1.0050302,0.15014274,-0.54848844,-0.7501991,0.9413719,-85,-202,1520,1535,0,0,0,0,0,NaN,0,0,0,NaN,NaN,NaN,0,-0.885580249,-0.476049854,-0.22392213,NaN,,0,,,32.46,0,0,,,,0,0,20151018,0,,,99.99,99.99,3.75E+07,0,0,0,,,,0,0,0,0,0,0,Manual,0,0,0,0,Manual,0,Hover,,lost,100,Disconnected,,,,,,,,,,,,,,,,,,,,,,,,,,,,,,,,,,,,,,0,,,,,,,,,,,,,,,,,,,,,,,,,,,,,,,,,,0,0,180,0,0,0,0,0,,Manual,OTHER,NONE,GPS_POSITION_NONMATCH,TRUE,Connected,,P,FALSE,FALSE,FALSE,GPS_CONSIST_ERROR,0,0,0,,,,,14.995,0,0,0,0,0,0,0,0,1,0,0,0,0,0,0,FALSE,0,,,
26461166,-51.656,,,0,43.66254,0,-0.035838574,-3.68E-04,-0.9966557,0.9972999,-0.567367,-0.3111222,-0.93208563,1.1346744,-85,-209,1520,1536,0,0,0,0,0,NaN,0,0,0,NaN,NaN,NaN,0,-0.941496751,-0.481766597,-0.255761326,NaN,,0,,,32.49,0,0,,,,0,0,20151018,0,,,99.99,99.99,3.75E+07,0,0,0,,,,0,0,0,0,0,0,Manual,0,0,0,0,Manual,0,Hover,,lost,100,Disconnected,,,,,,,,,,,,,,,,,,,,,,,,,,,,,,,,,,,,,,0,,,,,,,,,,,,,,,,,,,,,,,,,,,,,,,,,,0,0,180,0,0,0,0,0,,Manual,OTHER,NONE,GPS_POSITION_NONMATCH,TRUE,Connected,,P,FALSE,FALSE,FALSE,GPS_CONSIST_ERROR,0,0,0,,,,,15.052,0,0.028799547,12800,15.114,1.434,0,38,4.4,1,3776,0,0,0,0,0,FALSE,0,,,
26618625,-51.621,,,0,44.224335,0,-0.021605292,-0.009417711,-0.98969334,0.9899739,0.014395536,-0.56637347,-2.8527634,2.908478,-87,-202,1512,1527,0,0,0,0,0,NaN,0,0,0,NaN,NaN,NaN,0,-0.97112464,-0.485248844,-0.271686508,NaN,,0,,,32.46,0,0,,,,0,0,20151018,0,,,99.99,99.99,3.75E+07,0,0,0,,,,0,0,0,0,0,0,Manual,0,0,0,0,Manual,0,Hover,,lost,100,Disconnected,,,,,,,,,,,,,,,,,,,,,,,,,,,,,,,,,,,,,,0,,,,,,,,,,,,,,,,,,,,,,,,,,,,,,,,,,0,0,180,0,0,0,0,0,,Manual,OTHER,NONE,GPS_POSITION_NONMATCH,TRUE,Connected,,P,FALSE,FALSE,FALSE,GPS_CONSIST_ERROR,0,0,0,,,,,15.095,0,0.028799547,12800,15.114,1.434,0,38,4.4,1,3776,0,0,0,0,0,FALSE,0,,,
26775865,-51.586,,,0,43.957405,0,-0.03622635,0.001512432,-1.0030102,1.0036653,0.21581927,-0.3037899,-0.24177754,0.44421014,-85,-202,1520,1535,0,0,0,0,0,NaN,0,0,0,NaN,NaN,NaN,0,-1.019430656,-0.488465029,-0.294469147,NaN,,0,,,32.47,0,0,,,,0,0,20151018,0,,,99.99,99.99,3.75E+07,0,0,0,,,,0,0,0,0,0,0,Manual,0,0,0,0,Manual,0,Hover,,lost,100,Disconnected,,,,,,,,,,,,,,,,,,,,,,,,,,,,,,,,,,,,,,0,,,,,,,,,,,,,,,,,,,,,,,,,,,,,,,,,,0,0,180,0,0,0,0,0,,Manual,OTHER,NONE,GPS_POSITION_NONMATCH,TRUE,Connected,,P,FALSE,FALSE,FALSE,GPS_CONSIST_ERROR,0,0,0,,,,,15.128,0,0.028799547,12800,15.114,1.434,0,38,4.4,1,3776,0,0,0,0,0,FALSE,0,,,
26926113,-51.553,,,0,43.707024,0,-0.033606682,-0.01680492,-1.0030004,1.003704,-0.06688557,-1.1757007,-1.8282974,2.1747222,-87,-209,1512,1528,0,0,0,0,0,NaN,0,0,0,NaN,NaN,NaN,0,-1.054607866,-0.491380166,-0.317444153,NaN,,0,,,32.49,0,0,,,,0,0,20151018,0,,,99.99,99.99,3.75E+07,0,0,0,,,,0,0,0,0,0,0,Manual,0,0,0,0,Manual,0,Hover,,lost,100,Disconnected,,,,,,,,,,,,,,,,,,,,,,,,,,,,,,,,,,,,,,0,,,,,,,,,,,,,,,,,,,,,,,,,,,,,,,,,,0,0,180,0,0,0,0,0,,Manual,OTHER,NONE,GPS_POSITION_NONMATCH,TRUE,Connected,,P,FALSE,FALSE,FALSE,GPS_CONSIST_ERROR,0,0,0,,,,,15.141,0,0.028799547,12800,15.114,1.434,0,38,4.4,1,3776,0,0,0,0,0,FALSE,0,,,
27090872,-51.516,,,0,43.56011,0,-0.0464954,-0.008318588,-0.9850011,0.9861329,-0.07220928,-0.16040705,-1.594077,1.6037537,-93,-209,1520,1537,0,0,0,0,0,NaN,0,0,0,NaN,NaN,NaN,0,-1.095025153,-0.493152573,-0.333505125,NaN,,0,,,32.46,0,0,,,,0,0,20151018,0,,,99.99,99.99,3.75E+07,0,0,0,,,,0,0,0,0,0,0,Manual,0,0,0,0,Manual,0,Hover,,lost,100,Disconnected,,,,,,,,,,,,,,,,,,,,,,,,,,,,,,,,,,,,,,0,,,,,,,,,,,,,,,,,,,,,,,,,,,,,,,,,,0,0,180,0,0,0,0,0,     43 [L-CFG]get rc lost act. 2,Manual,OTHER,NONE,GPS_POSITION_NONMATCH,TRUE,Connected,,P,FALSE,FALSE,FALSE,GPS_CONSIST_ERROR,0,0,0,,,,,15.162,0,0.028799547,12800,15.114,1.434,0,38,4.4,1,3776,0,0,0,0,0,FALSE,0,,,
27248598,-51.481,,,0,43.326267,0,-0.030063944,-0.013472136,-1.0009034,1.0014454,0.06657754,-1.8188813,-0.2764903,1.8409803,-77,-212,1520,1536,0,0,0,0,0,NaN,0,0,0,NaN,NaN,NaN,0,-1.137462119,-0.494073798,-0.352781537,NaN,,0,,,32.45,0,0,,,,0,0,20151018,0,,,99.99,99.99,3.75E+07,0,0,0,,,,0,0,0,0,0,0,Manual,0,0,0,0,Manual,0,Hover,,lost,100,Disconnected,,,,,,,,,,,,,,,,,,,,,,,,,,,,,,,,,,,,,,0,,,,,,,,,,,,,,,,,,,,,,,,,,,,,,,,,,0,0,180,0,0,0,0,0,,Manual,OTHER,NONE,GPS_POSITION_NONMATCH,TRUE,Connected,,P,FALSE,FALSE,FALSE,GPS_CONSIST_ERROR,0,0,0,,,,,15.178,0,0.028799547,12800,15.114,1.434,0,38,4.4,1,3776,0,0,0,0,0,FALSE,0,,,
27405983,-51.446,,,0,43.468018,0,-0.04604191,-0.025453147,-1.0063765,1.0077506,-0.47678402,0.833002,-1.3409926,1.6490835,-85,-209,1520,1536,0,0,0,0,0,NaN,0,0,0,NaN,NaN,NaN,0,-1.178849275,-0.496469961,-0.381929694,NaN,,0,,,32.45,0,0,,,,0,0,20151018,0,,,99.99,99.99,3.75E+07,0,0,0,,,,0,0,0,0,0,0,Manual,0,0,0,0,Manual,0,Hover,,lost,100,Disconnected,,,,,,,,,,,,,,,,,,,,,,,,,,,,,,,,,,,,,,0,,,,,,,,,,,,,,,,,,,,,,,,,,,,,,,,,,0,0,180,0,0,0,0,0,     48 [L-FMU/VERSION]Mc  ID  :07JDE3P00A003F|     48 [L-FMU/VERSION]Mc  Ver :v3.2.35.5|     48 [L-FMU/VERSION]Bat Ver :v255.255.255.255|     48 [L-FMU/VERSION]svn Ver :0c768ee31289f87b9723b69d43bf91b34c652783|     48 [L-FMU/VERSION]Time    :commit:2017-05-25 19:45:35 /build:2017-05-25 22:13:20 ,Manual,OTHER,NONE,GPS_POSITION_NONMATCH,TRUE,Connected,,P,FALSE,FALSE,FALSE,GPS_CONSIST_ERROR,0,0,0,,,,,15.189,0,0.028799547,12800,15.114,1.434,0,38,4.4,1,3776,0,0,0,0,0,FALSE,0,mcID(SN)|07JDE3P00A003F,,
27556146,-51.413,,,0,44.267788,0,-0.041044842,-0.015191898,-0.9964529,0.9974136,-0.594665,-0.39787322,-1.3577952,1.534776,-77,-212,1520,1536,0,0,0,0,0,NaN,0,0,0,NaN,NaN,NaN,0,-1.199791936,-0.508476828,-0.379248784,NaN,,0,,,32.42,0,0,,,,0,0,20151018,0,,,99.99,99.99,3.75E+07,0,0,0,,,,0,0,0,0,0,0,Manual,0,0,0,0,Manual,0,Hover,,lost,100,Disconnected,,,,,,,,,,,,,,,,,,,,,,,,,,,,,,,,,,,,,,0,,,,,,,,,,,,,,,,,,,,,,,,,,,,,,,,,,0,0,180,0,0,0,0,0,     49 [L-GYRO_ACC]GYRO(0) fdi event:turn on|     49 [L-GYRO_ACC]ACC(0) fdi event:turn on|     49 [L-GYRO_ACC]GYRO(1) fdi event:turn on|     49 [L-GYRO_ACC]ACC(1) fdi event:turn on,Manual,OTHER,NONE,GPS_POSITION_NONMATCH,TRUE,Connected,,P,FALSE,FALSE,FALSE,GPS_CONSIST_ERROR,0,0,0,,,,,15.193,0,0.028799547,12800,15.114,1.434,0,38,4.4,1,3776,0,0,0,0,0,FALSE,0,mcVer|v3.2.35.5,,
27721047,-51.376,,,0,43.7153,0,-0.03981287,-0.005689919,-0.99598354,0.9967952,-0.390414,-0.5728299,-0.3569973,0.7797463,-85,-209,1520,1536,0,0,0,0,0,NaN,0,0,0,NaN,NaN,NaN,0,-1.252219588,-0.51307055,-0.409899597,NaN,,0,,,32.38,0,0,,,,0,0,20151018,0,,,99.99,99.99,3.75E+07,0,0,0,,,,0,0,0,0,0,0,Manual,0,0,0,0,Manual,0,Hover,,lost,100,Disconnected,,,,,,,,,,,,,,,,,,,,,,,,,,,,,,,,,,,,,,0,,,,,,,,,,,,,,,,,,,,,,,,,,,,,,,,,,0,0,180,0,0,0,0,0,     50 [L-COMPASS]index(0) fdi event:turn on|     50 [L-COMPASS]index(1) fdi event:turn on|     50 [L-FDI][BARO(0)] event:turn on|     50 [L-GYRO_ACC][mark] sa(0) regi ok. dtype(8) sid(0) g_uid(0) l_did(3) l_uid(0) l_dindex(|     50 [L-GYRO_ACC][mark] fmu_gyr_acc get register ack. succeed. global_user_id(0)|     50 [L-GYRO_ACC][mark] sa(1) regi ok. dtype(8) sid(0) g_uid(1) l_did(4) l_uid(1) l_dindex(|     50 [L-GYRO_ACC][mark] fmu_gyr_acc get register ack. succeed. global_user_id(1)|     50 [L-FDI]NS(0): init fdi turn on|     50 [L-FDI]NS(0): init: wait_static,Manual,OTHER,NONE,GPS_POSITION_NONMATCH,TRUE,Connected,,P,FALSE,FALSE,FALSE,GPS_CONSIST_ERROR,0,0,0,,,,,15.197,0,0.028799547,12800,15.114,1.434,0,38,4.4,1,3776,0,0,0,0,0,FALSE,0,,,
27878910,-51.341,,,0,43.773243,0,-0.038666878,-0.02374923,-1.0158314,1.0168443,-0.48610863,-0.083426066,-0.9655091,1.0841906,-74,-220,1518,1535,0,0,0,0,0,NaN,0,0,0,NaN,NaN,NaN,0,-1.282694871,-0.528798957,-0.40934758,NaN,,0,,,32.39,0,0,,,,0,0,20151018,0,,,99.99,99.99,3.75E+07,0,0,0,,,,0,0,0,0,0,0,Manual,0,0,0,0,Manual,0,Hover,,lost,100,Disconnected,,,,,,,,,,,,,,,,,,,,,,,,,,,,,,,,,,,,,,0,,,,,,,,,,,,,,,,,,,,,,,,,,,,,,,,,,0,0,180,0,0,0,0,0,,Manual,OTHER,NONE,GPS_POSITION_NONMATCH,TRUE,Connected,,P,FALSE,FALSE,FALSE,GPS_CONSIST_ERROR,0,0,0,,,,,15.202,0,0.028799547,12800,15.114,1.434,0,38,4.4,1,3776,0,0,0,0,0,FALSE,0,,,
28036045,-51.306,,,0,43.909813,0,-0.02826676,-0.015770426,-1.0002894,1.000813,-0.7732691,1.5876923,-1.8612012,2.5656931,-93,-217,1520,1538,0,0,0,0,0,NaN,0,0,0,NaN,NaN,NaN,0,-1.324893055,-0.540129516,-0.426084556,NaN,,0,,,32.42,0,0,,,,0,0,20151018,0,,,99.99,99.99,3.75E+07,0,0,0,,,,0,0,0,0,0,0,Manual,0,0,0,0,Manual,0,Hover,,lost,100,Disconnected,,,,,,,,,,,,,,,,,,,,,,,,,,,,,,,,,,,,,,0,,,,,,,,,,,,,,,,,,,,,,,,,,,,,,,,,,0,0,180,0,0,0,0,0,,Manual,OTHER,NONE,GPS_POSITION_NONMATCH,FALSE,Connected,,P,FALSE,FALSE,FALSE,GPS_CONSIST_ERROR,0,0,0,,,,,15.207,0,0.028799547,12800,15.114,1.434,0,38,4.4,1,3776,0,0,0,0,0,FALSE,0,,,
28186140,-51.273,,,0,43.56631,0,-0.051246222,-4.66E-05,-0.99695146,0.9982677,-0.9460741,0.25008482,-2.3192387,2.5172338,-77,-227,1518,1536,0,0,0,0,0,NaN,0,0,0,NaN,NaN,NaN,0,-1.342927617,-0.554390982,-0.428090889,NaN,,0,,,32.37,0,0,,,,0,0,20151018,0,,,99.99,99.99,3.75E+07,0,0,0,,,,0,0,0,0,0,0,Manual,0,0,0,0,Manual,0,Hover,,lost,100,Disconnected,,,,,,,,,,,,,,,,,,,,,,,,,,,,,,,,,,,,,,0,,,,,,,,,,,,,,,,,,,,,,,,,,,,,,,,,,0,0,180,0,0,0,0,0,,Manual,OTHER,NONE,GPS_POSITION_NONMATCH,FALSE,Connected,,P,FALSE,FALSE,FALSE,GPS_CONSIST_ERROR,0,0,0,,,,,15.208,0,0.028799547,12800,15.114,1.434,0,38,4.4,1,3776,0,0,0,0,0,FALSE,0,,,
28351362,-51.236,,,0,43.877743,0,-0.026822427,-0.028456856,-0.99403465,0.99480355,-0.23617655,-0.672408,-2.7634377,2.853857,-85,-227,1518,1537,0,0,0,0,0,NaN,0,0,0,NaN,NaN,NaN,0,-1.386395017,-0.572379242,-0.444062422,NaN,,0,,,32.41,0,0,,,,0,0,20151018,0,,,99.99,99.99,3.75E+07,0,0,0,,,,0,0,0,0,0,0,Manual,0,0,0,0,Manual,0,Hover,,lost,100,Disconnected,,,,,,,,,,,,,,,,,,,,,,,,,,,,,,,,,,,,,,0,,,,,,,,,,,,,,,,,,,,,,,,,,,,,,,,,,0,0,180,0,0,0,0,0,     57 [L-DBG1]set time by 8. 2020-8-5  14:26:30|||e9f<fly-task_a>calender_setup_time  [2020-8-5]14:26:30. last_type(7).updates(0),Manual,OTHER,NONE,GPS_POSITION_NONMATCH,FALSE,Connected,,P,FALSE,FALSE,FALSE,GPS_CONSIST_ERROR,0,0,0,,,,,15.208,0,0.028799547,12800,15.114,1.434,0,38,4.4,1,3776,0,0,0,0,0,FALSE,0,,,
28509011,-51.201,,,0,43.70496,0,-0.048004404,-0.005815236,-1.0197896,1.0209354,-0.6973125,-0.1552891,-0.47592023,0.8584052,-85,-227,1518,1537,0,0,0,0,0,NaN,0,0,0,NaN,NaN,NaN,0,-1.406028934,-0.59189572,-0.433290896,NaN,,0,,,32.4,0,0,,,,0,0,20151018,0,,,99.99,99.99,3.75E+07,0,0,0,,,,0,0,0,0,0,0,Manual,0,0,0,0,Manual,0,Hover,,lost,100,Disconnected,,,,,,,,,,,,,,,,,,,,,,,,,,,,,,,,,,,,,,0,,,,,,,,,,,,,,,,,,,,,,,,,,,,,,,,,,0,0,180,0,0,0,0,0,     58 [L-RECORDER]set timezone:20. result:0,Manual,OTHER,NONE,GPS_POSITION_NONMATCH,FALSE,Connected,,P,FALSE,FALSE,FALSE,GPS_CONSIST_ERROR,0,0,0,,,,,15.207,0,0.028799547,12800,15.114,1.434,0,38,4.4,1,3776,0,0,0,0,0,FALSE,0,,,
28666083,-51.166,,,0,43.15658,0,-0.027111944,-0.022895478,-0.9922129,0.99284726,-0.4974255,-0.41235468,-1.6599861,1.781298,-82,-230,1525,1544,0,0,0,0,0,NaN,0,0,0,NaN,NaN,NaN,0,-1.459516849,-0.617804615,-0.449113859,NaN,,0,,,32.36,0,0,,,,0,0,20151018,0,,,99.99,99.99,3.75E+07,0,0,0,,,,0,0,0,0,0,0,Manual,0,0,0,0,Manual,0,Hover,,lost,100,Disconnected,,,,,,,,,,,,,,,,,,,,,,,,,,,,,,,,,,,,,,0,,,,,,,,,,,,,,,,,,,,,,,,,,,,,,,,,,0,0,180,0,0,0,0,0,,Manual,OTHER,NONE,GPS_POSITION_NONMATCH,FALSE,Connected,,P,FALSE,FALSE,FALSE,GPS_CONSIST_ERROR,0,0,0,,,,,15.205,0,0.028799547,12800,15.114,1.434,0,38,4.4,1,3776,0,0,0,0,0,FALSE,0,,,
28816287,-51.133,,,0,43.83015,0,-0.04738524,-0.006048662,-1.0037133,1.0048493,-0.65330034,0.4459718,-0.7960509,1.122225,-82,-230,1525,1544,0,0,0,0,0,NaN,0,0,0,NaN,NaN,NaN,0,-1.458197637,-0.638468137,-0.447620225,NaN,,0,,,32.33,0,0,,,,0,0,20151018,0,,,99.99,99.99,3.75E+07,0,0,0,,,,0,0,0,0,0,0,Manual,0,0,0,0,Manual,0,Hover,,lost,100,Disconnected,,,,,,,,,,,,,,,,,,,,,,,,,,,,,,,,,,,,,,0,,,,,,,,,,,,,,,,,,,,,,,,,,,,,,,,,,0,0,180,0,0,0,0,0,     63 [L-ACTIVATION]get version,Manual,OTHER,NONE,GPS_POSITION_NONMATCH,FALSE,Connected,,P,FALSE,FALSE,FALSE,GPS_CONSIST_ERROR,0,0,0,,,,,15.204,0,0.028799547,12800,15.114,1.434,0,38,4.4,1,3776,0,0,0,0,0,FALSE,0,,,
28981034,-51.096,,,0,43.338688,0,-0.025241004,-0.017422989,-1.0175189,1.017981,-0.9471574,-0.8285867,-0.3497218,1.3061272,-85,-227,1518,1537,0,0,0,0,0,NaN,0,0,0,NaN,NaN,NaN,0,-1.503747649,-0.672564924,-0.437212068,NaN,,0,,,32.35,0,0,,,,0,0,20151018,0,,,99.99,99.99,3.75E+07,0,0,0,,,,0,0,0,0,0,0,Manual,0,0,0,0,Manual,0,Hover,,lost,100,Disconnected,,,,,,,,,,,,,,,,,,,,,,,,,,,,,,,,,,,,,,0,,,,,,,,,,,,,,,,,,,,,,,,,,,,,,,,,,0,0,180,0,0,0,0,0,     63 [L-BATTERY]Battery barcode:082AD480311106||,Manual,OTHER,NONE,GPS_POSITION_NONMATCH,FALSE,Connected,,P,FALSE,FALSE,FALSE,GPS_CONSIST_ERROR,0,0,0,,,,,15.202,0,0.028799547,12800,15.114,1.434,0,38,4.4,1,3776,0,0,0,0,0,FALSE,0,,,
29138934,-51.061,,,0,44.112595,0,-0.041194227,-0.009426748,-0.99389833,0.99479634,-1.2958909,0.2967796,-1.8694147,2.2939317,-85,-227,1518,1537,0,0,0,0,0,NaN,0,0,0,NaN,NaN,NaN,0,-1.541964204,-0.702191092,-0.450779865,NaN,,0,,,32.39,0,0,,,,0,0,20151018,0,,,99.99,99.99,3.75E+07,0,0,0,,,,0,0,0,0,0,0,Manual,0,0,0,0,Manual,0,Hover,,lost,100,Disconnected,,,,,,,,,,,,,,,,,,,,,,,,,,,,,,,,,,,,,,0,,,,,,,,,,,,,,,,,,,,,,,,,,,,,,,,,,0,0,180,0,0,0,0,0,,Manual,OTHER,NONE,GPS_POSITION_NONMATCH,FALSE,Connected,,P,FALSE,FALSE,FALSE,GPS_CONSIST_ERROR,0,0,0,,,,,15.198,0,0.028799547,12800,15.114,1.434,0,38,4.4,1,3776,0,0,0,0,0,FALSE,0,,,
29296168,-51.026,,,0,44.290546,0,-0.03287238,-0.015712537,-1.0058395,1.0064992,-0.50326955,0.07512149,-1.0406085,1.1583564,-74,-230,1525,1544,0,0,0,0,0,NaN,0,0,0,NaN,NaN,NaN,0,-1.546241072,-0.733330891,-0.435773033,NaN,,0,,,32.4,0,0,,,,0,0,20151018,0,,,99.99,99.99,3.75E+07,0,0,0,,,,0,0,0,0,0,0,Manual,0,0,0,0,Manual,0,Hover,,lost,100,Disconnected,,,,,,,,,,,,,,,,,,,,,,,,,,,,,,,,,,,,,,0,,,,,,,,,,,,,,,,,,,,,,,,,,,,,,,,,,0,0,180,0,0,0,0,0,     67 [L-ACTIVATION]send index:0 send id:2 get info. state:1. date:2017-10-27. time:11-18-59,Manual,OTHER,NONE,GPS_POSITION_NONMATCH,FALSE,Connected,,P,FALSE,FALSE,FALSE,GPS_CONSIST_ERROR,0,0,0,,,,,15.194,0,0.028799547,12800,15.114,1.434,0,38,4.4,1,3776,0,0,0,0,0,FALSE,0,,,
29446200,-50.993,,,0,43.996723,0,-0.03209561,-0.015586443,-1.0019838,1.0026188,-1.4141383,-0.30082804,-1.0996399,1.8164506,-66,-230,1523,1541,0,0,0,0,0,NaN,0,0,0,NaN,NaN,NaN,0,-1.601061801,-0.760686078,-0.44100106,NaN,,0,,,32.4,0,0,,,,0,0,20151018,0,,,99.99,99.99,3.75E+07,0,0,0,,,,0,0,0,0,0,0,Manual,0,0,0,0,Manual,0,Hover,,lost,100,Disconnected,,,,,,,,,,,,,,,,,,,,,,,,,,,,,,,,,,,,,,0,,,,,,,,,,,,,,,,,,,,,,,,,,,,,,,,,,0,0,180,0,0,0,0,0,,Manual,OTHER,NONE,GPS_POSITION_NONMATCH,FALSE,Connected,,P,FALSE,FALSE,FALSE,GPS_CONSIST_ERROR,0,0,0,,,,,15.192,0,0.028799547,12800,15.114,1.434,0,38,4.4,1,3776,0,0,0,0,0,FALSE,0,,,
29611045,-50.956,,,0,43.7091,0,-0.027089743,-0.008729057,-1.004519,1.004922,-0.47800443,0.16691808,-1.9732031,2.0371256,-82,-238,1523,1543,0,0,0,0,0,NaN,0,0,0,NaN,NaN,NaN,0,-1.608365862,-0.807348313,-0.431690971,NaN,,0,,,32.39,0,0,,,,0,0,20151018,0,,,99.99,99.99,3.75E+07,0,0,0,,,,0,0,0,0,0,0,Manual,0,0,0,0,Manual,0,Hover,,lost,100,Disconnected,,,,,,,,,,,,,,,,,,,,,,,,,,,,,,,,,,,,,,0,,,,,,,,,,,,,,,,,,,,,,,,,,,,,,,,,,0,0,180,0,0,0,0,0,,Manual,OTHER,NONE,GPS_POSITION_NONMATCH,FALSE,Connected,,P,FALSE,FALSE,FALSE,GPS_CONSIST_ERROR,0,0,0,,,,,15.188,0,0.028799547,12800,15.114,1.434,0,38,4.4,1,3776,0,0,0,0,0,FALSE,0,,,
29769036,-50.921,,,0,43.5301,0,-0.03669674,-0.006768423,-1.0094745,1.010164,-0.692352,0.64862275,-0.04790745,0.94992524,-87,-238,1533,1553,0,0,0,0,0,NaN,0,0,0,NaN,NaN,NaN,0,-1.640736173,-0.838304868,-0.428357817,NaN,,0,,,32.39,0,0,,,,0,0,20151018,0,,,99.99,99.99,3.75E+07,0,0,0,,,,0,0,0,0,0,0,Manual,0,0,0,0,Manual,0,Hover,,lost,100,Disconnected,,,,,,,,,,,,,,,,,,,,,,,,,,,,,,,,,,,,,,0,,,,,,,,,,,,,,,,,,,,,,,,,,,,,,,,,,0,0,180,0,0,0,0,0,,Manual,OTHER,NONE,GPS_POSITION_NONMATCH,FALSE,Connected,,P,FALSE,FALSE,FALSE,GPS_CONSIST_ERROR,0,0,0,,,,,15.183,0,0.028799547,12800,15.114,1.434,0,38,4.4,1,3776,0,0,0,0,0,FALSE,0,,,
29926081,-50.886,,,0,43.35731,0,-0.028972398,-0.001639039,-0.99624395,0.9966665,-0.70895797,-0.49960998,-1.6449454,1.8595905,-98,-235,1525,1546,0,0,0,0,0,NaN,0,0,0,NaN,NaN,NaN,0,-1.678514297,-0.87650219,-0.423903826,NaN,,0,,,32.4,0,0,,,,0,0,20151018,0,,,99.99,99.99,3.75E+07,0,0,0,,,,0,0,0,0,0,0,Manual,0,0,0,0,Manual,0,Hover,,lost,100,Disconnected,,,,,,,,,,,,,,,,,,,,,,,,,,,,,,,,,,,,,,0,,,,,,,,,,,,,,,,,,,,,,,,,,,,,,,,,,0,0,180,0,0,0,0,0,,Manual,OTHER,NONE,GPS_POSITION_NONMATCH,FALSE,Connected,,P,FALSE,FALSE,FALSE,GPS_CONSIST_ERROR,0,0,0,,,,,15.179,0,0.028799547,12800,15.114,1.434,0,38,4.4,1,3776,0,0,0,0,0,FALSE,1,,,
30076122,-50.853,,,0,43.990513,0,-0.026326695,-0.010370214,-1.0135866,1.0139816,-1.0089735,0.9534307,-0.6160337,1.5187347,-101,-233,1518,1539,0,0,0,0,0,NaN,0,0,0,NaN,NaN,NaN,0,-1.680711601,-0.907502187,-0.424280085,NaN,,0,,,32.39,0,0,,,,0,0,20151018,0,,,99.99,99.99,3.75E+07,0,0,0,,,,0,0,0,0,0,0,Manual,0,0,0,0,Manual,0,Hover,,lost,100,Disconnected,,,,,,,,,,,,,,,,,,,,,,,,,,,,,,,,,,,,,,0,,0,0,0,0,29,29,0,27,48.697918,48.75,0,48.645832,48.958332,48.958332,48.958332,48.958332,0,0,0,0,14.7,14.8,0,14.9,0,0,0,0,0,0,-1,0,0,0,180,0,0,0,0,0,"     76 [L-ESC]ESC3 link up|||     76 [L-ESC]esc alive info = 0x8|||     76 [L-ESC]ESC0 link up|||     76 [L-ESC]ESC1 link up|||     77 [L-FMU/MOTOR]fault off. esc(1) is disconnect|     77 [L-FMU/MOTOR]fault off. esc(2) is disconnect|     77 [L-FMU/MOTOR]fault off. esc(4) is disconnect|     77 [L-ESC]ESC2 link up|||     77 [L-ESC]ESC0 version: Protocol = [V1.0] Hardware = ""WM332_V2"" |     77 [L-ESC]Loader   = [V01.02.00.00] |     77 [L-ESC]Firmware = [V01.08.00.07] |||     77 [L-ESC]ESC1 version: Protocol = [V1.0] Hardware = ""WM332_V2"" |     77 [L-ESC]Loader   = [V01.02.00.00] |     77 [L-ESC]Firmware = [V01.08.00.07] ||",Manual,OTHER,NONE,GPS_POSITION_NONMATCH,FALSE,Connected,,P,FALSE,FALSE,FALSE,GPS_CONSIST_ERROR,0,0,0,,,,,15.177,0,0.028799547,12800,15.114,1.434,0,38,4.4,1,3776,0,0,0,0,0,FALSE,1,,,
30241047,-50.816,,,0,43.811523,0,-0.031253193,-0.001652375,-1.0020705,1.0025592,-0.934389,0.8596666,-0.11432851,1.2748257,-93,-243,1515,1537,0,0,0,0,0,NaN,0,0,0,NaN,NaN,NaN,0,-1.726169696,-0.940116223,-0.42339752,NaN,,0,,,32.41,0,0,,,,0,0,20151018,0,,,99.99,99.99,3.75E+07,0,0,0,,,,0,0,0,0,0,0,Manual,0,0,0,0,Manual,0,Hover,,lost,100,Disconnected,,,,,,,,,,,,,,,,,,,,,,,,,,,,,,,,,,,,,,0,,0,0,0,0,29,29,29,27,48.697918,48.75,48.854168,48.645832,48.958332,48.958332,48.958332,48.958332,0,0,0,0,14.7,14.8,14.6,14.9,0,0,0,0,0,0,0,0,0,0,180,0,0,0,0,0,"     78 [L-FMU/MOTOR]fault off. esc(3) is disconnect|     78 [L-ESC]ESC3 version: Protocol = [V1.0] Hardware = ""WM332_V2"" |     78 [L-ESC]Loader   = [V01.02.00.00] |     78 [L-ESC]Firmware = [V01.08.00.07] ||",Manual,OTHER,NONE,GPS_POSITION_NONMATCH,FALSE,Connected,,P,FALSE,FALSE,FALSE,GPS_CONSIST_ERROR,0,0,0,,,,,15.173,0,0.028799547,12800,15.114,1.434,0,38,4.4,1,3776,0,0,0,0,0,FALSE,1,,,
30399210,-50.781,,,0,43.108982,0,-0.026117133,-0.003455242,-0.9931793,0.99352866,-0.912554,0.116658926,-1.5528017,1.8048705,-85,-235,1518,1538,0,0,0,0,0,NaN,0,0,0,NaN,NaN,NaN,0,-1.74822275,-0.976182964,-0.423229345,NaN,,0,,,32.38,0,0,,,,0,0,20151018,0,,,99.99,99.99,3.75E+07,0,0,0,,,,0,0,0,0,0,0,Manual,0,0,0,0,Manual,0,Hover,,lost,100,Disconnected,,,,,,,,,,,,,,,,,,,,,,,,,,,,,,,,,,,,,,0,,0,0,0,0,29,29,29,27,48.697918,48.75,48.854168,48.645832,48.958332,48.958332,48.958332,48.958332,0,0,0,0,14.6,14.9,14.8,15,0,0,0,0,0,0,0,0,0,0,180,0,0,0,0,0,,Manual,OTHER,NONE,GPS_POSITION_NONMATCH,FALSE,Connected,,P,FALSE,FALSE,FALSE,GPS_CONSIST_ERROR,0,0,0,,,,,15.168,0,0.028799547,12800,15.114,1.434,0,38,4.4,1,3776,0,0,0,0,0,FALSE,1,,,
30556096,-50.746,,,0,43.651157,0,-0.03227664,-0.004597145,-1.0046332,1.005162,-1.025354,-0.06377677,0.11598,1.0338615,-82,-238,1523,1543,0,0,0,0,0,NaN,0,0,0,NaN,NaN,NaN,0,-1.765328484,-1.007502479,-0.429375645,NaN,,0,,,32.38,0,0,,,,0,0,20151018,0,,,99.99,99.99,3.75E+07,0,0,0,,,,0,0,0,0,0,0,Manual,0,0,0,0,Manual,0,Hover,,lost,100,Disconnected,,,,,,,,,,,,,,,,,,,,,,,,,,,,,,,,,,,,,,0,,0,0,0,0,29,29,29,27,48.697918,48.75,48.854168,48.645832,48.958332,48.958332,48.958332,48.958332,0,0,0,0,14.9,14.8,14.9,14.9,0,0,0,0,0,0,0,0,0,0,180,0,0,0,0,0,,Manual,OTHER,NONE,GPS_POSITION_NONMATCH,FALSE,Connected,,P,FALSE,FALSE,FALSE,GPS_CONSIST_ERROR,0,0,0,,,,,15.164,0,0.028799547,12800,15.114,1.434,0,38,4.4,1,3776,0,0,0,0,0,FALSE,1,,,
30706141,-50.713,,,0,44.07535,0,-0.021891188,-4.05E-04,-1.001262,1.0015013,-0.66607034,-0.5336638,-1.3831152,1.6252552,-101,-240,1518,1540,0,0,0,0,0,NaN,0,0,0,NaN,NaN,NaN,0,-1.794843113,-1.030721528,-0.427702775,NaN,,0,,,32.37,0,0,,,,0,0,20151018,0,,,99.99,99.99,3.75E+07,0,0,0,,,,0,0,0,0,0,0,Manual,0,0,0,0,Manual,0,Hover,,lost,100,Disconnected,,,,,,,,,,,,,,,,,,,,,,,,,,,,,,,,,,,,,,0,,0,0,0,0,29,29,29,27,48.697918,48.75,48.854168,48.645832,48.958332,48.958332,48.958332,48.958332,0,0,0,0,14.9,14.8,14.9,14.9,0,0,0,0,0,0,0,0,0,0,180,0,0,0,0,0,,Manual,OTHER,NONE,GPS_POSITION_NONMATCH,FALSE,Connected,,P,FALSE,FALSE,FALSE,GPS_CONSIST_ERROR,0,0,0,,,,,15.162,0,0.028799547,12800,15.114,1.434,0,38,4.4,1,3776,0,0,0,0,0,FALSE,1,,,
30871162,-50.676,,,0,43.612877,0,-0.025562163,-0.004963426,-1.0039651,1.0043027,-0.9671737,-0.030988842,-0.69592106,1.1919276,-98,-243,1525,1547,0,0,0,0,0,NaN,0,0,0,NaN,NaN,NaN,0,-1.815782729,-1.066961538,-0.43938727,NaN,,0,,,32.4,0,0,,,,0,0,20151018,0,,,99.99,99.99,3.75E+07,0,0,0,,,,0,0,0,0,0,0,Manual,0,0,0,0,Manual,0,Hover,,lost,100,Disconnected,,,,,,,,,,,,,,,,,,,,,,,,,,,,,,,,,,,,,,0,,0,0,0,0,29,29,29,27,48.697918,48.75,48.854168,48.645832,48.958332,48.958332,48.958332,48.958332,0,0,0,0,14.6,14.8,14.7,14.9,0,0,0,0,0,0,0,0,0,0,180,0,0,0,0,0,,Manual,OTHER,NONE,GPS_POSITION_NONMATCH,FALSE,Connected,,P,FALSE,FALSE,FALSE,GPS_CONSIST_ERROR,0,0,0,,,,,15.158,0,0.028799547,12800,15.114,1.434,0,38,4.4,1,3776,0,0,0,0,0,FALSE,1,,,
31029053,-50.641,,,0,43.72358,0,-0.024573738,0.009352246,-1.0049081,1.005252,-0.61781496,-0.39729187,-0.6462619,0.9783612,-96,-209,1512,1529,0,0,0,0,0,NaN,0,0,0,NaN,NaN,NaN,0,-1.84800005,-1.084953555,-0.458504112,NaN,,0,,,32.41,0,0,,,,0,0,20151018,0,,,99.99,99.99,3.75E+07,0,0,0,,,,0,0,0,0,0,0,Manual,0,0,0,0,Manual,0,Hover,,lost,100,Disconnected,,,,,,,,,,,,,,,,,,,,,,,,,,,,,,,,,,,,,,0,,0,0,0,0,29,29,29,27,48.697918,48.75,48.854168,48.645832,48.958332,48.958332,48.958332,48.958332,0,0,0,0,14.6,14.8,14.9,15,0,0,0,0,0,0,0,0,0,0,180,0,0,0,0,0,,Manual,OTHER,NONE,GPS_POSITION_NONMATCH,FALSE,Connected,,P,FALSE,FALSE,FALSE,GPS_CONSIST_ERROR,0,0,0,,,,,15.155,0,0.12914608,12800,15.114,1.324,0,38,4.4,1,3777,0,0,0,0,0,FALSE,1,,,
31186101,-50.606,,,0,43.959476,0,-0.02649269,-0.008523004,-1.0051936,1.0055788,-0.3553858,-0.53309846,-1.6171347,1.7394303,-90,-225,1518,1537,0,0,0,0,0,NaN,0,0,0,NaN,NaN,NaN,0,-1.861905227,-1.107177483,-0.460045888,NaN,,0,,,32.42,0,0,,,,0,0,20151018,1,,,99.99,99.99,3.75E+07,0,0,0,,,,0,0,0,0,0,0,Manual,0,0,0,0,Manual,0,Hover,,lost,100,Disconnected,,,,,,,,,,,,,,,,,,,,,,,,,,,,,,,,,,,,,,0,,0,0,0,0,29,29,29,27,48.697918,48.75,48.854168,48.645832,48.958332,48.958332,48.958332,48.958332,0,0,0,0,14.7,14.9,14.7,14.9,0,0,0,0,0,0,0,0,0,0,180,0,0,0,0,0,,Manual,OTHER,NONE,GPS_POSITION_NONMATCH,FALSE,Connected,,P,FALSE,FALSE,FALSE,GPS_CONSIST_ERROR,0,0,0,,,,,15.151,0,0.12914608,12800,15.114,1.324,0,38,4.4,1,3777,0,0,0,0,0,FALSE,1,,,
31336112,-50.573,,,0,43.601494,0,-0.01713934,0.0047399,-1.006475,1.0066321,-0.37733236,-1.2055384,0.18069059,1.2760688,-90,-225,1518,1537,0,0,0,0,0,NaN,0,0,0,NaN,NaN,NaN,0,-1.900517576,-1.125145599,-0.488059079,NaN,,0,,,32.43,0,0,,,,0,0,20151018,1,,,99.99,99.99,3.75E+07,0,0,0,,,,0,0,0,0,0,0,Manual,0,0,0,0,Manual,0,Hover,,lost,100,Disconnected,,,,,,,,,,,,,,,,,,,,,,,,,,,,,,,,,,,,,,0,,0,0,0,0,29,29,29,27,48.697918,48.75,48.854168,48.645832,48.958332,48.958332,48.958332,48.958332,0,0,0,0,14.7,14.9,14.9,14.8,0,0,0,0,0,0,0,0,0,0,180,0,0,0,0,0,,Manual,OTHER,NONE,GPS_POSITION_NONMATCH,FALSE,Connected,,P,FALSE,FALSE,FALSE,GPS_CONSIST_ERROR,0,0,0,,,,,15.149,0,0.12914608,12800,15.114,1.324,0,38,4.4,1,3777,0,0,0,0,0,FALSE,1,,,
31501054,-50.536,,,0,43.7153,0,-0.03028767,0.010063354,-0.9954068,0.99591833,0.2824953,-0.4677176,-0.9054197,1.0575198,-74,-220,1518,1535,0,0,0,0,0,NaN,0,0,0,NaN,NaN,NaN,0,-1.918673137,-1.141434493,-0.504705477,NaN,,0,,,32.42,0,0,,,,0,0,20151018,1,,,99.99,99.99,3.75E+07,0,0,0,,,,0,0,0,0,0,0,Manual,0,0,0,0,Manual,0,Hover,,lost,100,Disconnected,,,,,,,,,,,,,,,,,,,,,,,,,,,,,,,,,,,,,,0,,0,0,0,0,29,29,29,27,48.697918,48.75,48.854168,48.645832,48.958332,48.958332,48.958332,48.958332,0,0,0,0,14.8,15,14.8,15,0,0,0,0,0,0,0,0,0,0,180,0,0,0,0,0,,Manual,OTHER,NONE,GPS_POSITION_NONMATCH,FALSE,Connected,,P,FALSE,FALSE,FALSE,GPS_CONSIST_ERROR,0,0,0,,,,,15.147,0,0.12914608,12800,15.114,1.324,0,38,4.4,1,3777,0,0,0,0,0,FALSE,1,,,
31659560,-50.501,,,0,43.692543,0,-0.019445512,-0.015153505,-1.0037537,1.0040563,-0.98985213,-1.1708971,-0.7489599,1.7063845,-90,-220,1528,1546,0,0,0,0,0,NaN,0,0,0,NaN,NaN,NaN,0,-1.939948044,-1.154776871,-0.527895516,NaN,,0,,,32.38,0,0,,,,0,0,20151018,1,,,99.99,99.99,3.75E+07,0,0,0,,,,0,0,0,0,0,0,Manual,0,0,0,0,Manual,0,Hover,,lost,100,Disconnected,,,,,,,,,,,,,,,,,,,,,,,,,,,,,,,,,,,,,,0,,0,0,0,0,29,29,29,27,48.697918,48.75,48.854168,48.645832,48.958332,48.958332,48.958332,48.958332,0,0,0,0,14.6,14.8,14.9,14.9,0,0,0,0,0,0,0,0,0,0,180,0,0,0,0,0,     94 [L-FMU/VERSION]Mc  ID  :07JDE3P00A003F|     94 [L-FMU/VERSION]Mc  Ver :v3.2.35.5|     94 [L-FMU/VERSION]Bat Ver :v255.255.255.255|     94 [L-FMU/VERSION]svn Ver :0c768ee31289f87b9723b69d43bf91b34c652783|     94 [L-FMU/VERSION]Time    :commit:2017-05-25 19:45:35 /build:2017-05-25 22:13:20 ,Manual,OTHER,NONE,GPS_POSITION_NONMATCH,FALSE,Connected,,P,FALSE,FALSE,FALSE,GPS_CONSIST_ERROR,0,0,0,,,,,15.146,0,0.12914608,12800,15.114,1.324,0,38,4.4,1,3777,0,0,0,0,0,FALSE,1,mcID(SN)|07JDE3P00A003F,,
31816135,-50.466,,,0,43.447327,0,-0.025233807,0.016312303,-1.0116584,1.0121045,0.2036911,-1.4430237,0.14490262,1.464515,-93,-217,1520,1538,0,0,0,0,0,NaN,0,0,0,NaN,NaN,NaN,0,-1.968458253,-1.166491267,-0.559556059,NaN,,0,,,32.41,0,0,,,,0,0,20151018,1,,,99.99,99.99,3.75E+07,0,0,0,,,,0,0,0,0,0,0,Manual,0,0,0,0,Manual,0,Hover,,lost,100,Disconnected,,,,,,,,,,,,,,,,,,,,,,,,,,,,,,,,,,,,,,0,,0,0,0,0,29,29,29,27,48.697918,48.75,48.854168,48.645832,48.958332,48.958332,48.958332,48.958332,0,0,0,0,14.6,14.9,14.7,15.1,0,0,0,0,0,0,0,0,0,0,180,0,0,0,0,0,,Manual,OTHER,NONE,GPS_POSITION_NONMATCH,FALSE,Connected,,P,FALSE,FALSE,FALSE,GPS_CONSIST_ERROR,0,0,0,,,,,15.146,0,0.12914608,12800,15.114,1.324,0,38,4.4,1,3777,0,0,0,0,0,FALSE,1,mcVer|v3.2.35.5,,
31966546,-50.433,,,0,44.22537,0,-0.027436065,-0.004577769,-0.99000627,0.9903969,-0.27173442,0.4070951,-0.7826269,0.92307687,-85,-209,1520,1536,0,0,0,0,0,NaN,0,0,0,NaN,NaN,NaN,0,-1.980672433,-1.169193559,-0.580427302,NaN,,0,,,32.46,0,0,,,,0,0,20151018,1,,,99.99,99.99,3.75E+07,0,0,0,,,,0,0,0,0,0,0,Manual,0,0,0,0,Manual,0,Hover,,lost,100,Disconnected,,,,,,,,,,,,,,,,,,,,,,,,,,,,,,,,,,,,,,0,,0,0,0,0,29,29,29,27,48.697918,48.75,48.854168,48.645832,48.958332,48.958332,48.958332,48.958332,0,0,0,0,14.6,14.9,14.7,15.1,0,0,0,0,0,0,0,0,0,0,180,0,0,0,0,0,,Manual,OTHER,NONE,GPS_POSITION_NONMATCH,FALSE,Connected,,P,FALSE,FALSE,FALSE,GPS_CONSIST_ERROR,0,0,0,,,,,15.146,0,0.12914608,12800,15.114,1.324,0,38,4.4,1,3777,0,0,0,0,0,FALSE,1,,,
32131050,-50.396,,,0,44.046383,0,-0.028818803,-1.33E-04,-1.003269,1.0036829,-0.043334387,-0.95600206,-0.66368437,1.1646007,-96,-209,1512,1529,0,0,0,0,0,NaN,0,0,0,NaN,NaN,NaN,0,-2.011203536,-1.171634172,-0.619220091,NaN,,0,,,32.47,0,0,,,,0,0,20151018,1,,,99.99,99.99,3.75E+07,0,0,0,,,,0,0,0,0,0,0,Manual,0,0,0,0,Manual,0,Hover,,lost,100,Disconnected,,,,,,,,,,,,,,,,,,,,,,,,,,,,,,,,,,,,,,0,,0,0,0,0,29,29,29,27,48.697918,48.75,48.854168,48.645832,48.958332,48.958332,48.958332,48.958332,0,0,0,0,14.9,14.8,14.9,14.9,0,0,0,0,0,0,0,0,0,0,180,0,0,0,0,0,     99 [L-SENSOR][baro(0)] std_filtered_air_press init succeed: press:100.8|    100 [L-GPS]index(0) fdi event:turn on,Manual,OTHER,NONE,GPS_POSITION_NONMATCH,FALSE,Connected,,P,FALSE,FALSE,FALSE,GPS_CONSIST_ERROR,0,0,0,,,,,15.146,0,0.12914608,12800,15.114,1.324,0,38,4.4,1,3777,0,0,0,0,0,FALSE,1,,,
32288897,-50.361,,,0,44.316406,0,-0.030293206,0.003435731,-1.0074388,1.0079,-0.046159457,-1.595806,-2.0626101,2.608273,-85,-209,1520,1536,0,0,0,0,0,NaN,0,0,0,NaN,NaN,NaN,0,-2.03621426,-1.179661901,-0.64127682,NaN,,0,,,32.49,0,0,,,,0,0,20151018,1,,,99.99,99.99,3.75E+07,0,0,0,,,,0,0,0,0,0,0,Manual,0,0,0,0,Manual,0,Hover,,lost,100,Disconnected,,,,,,,,,,,,,,,,,,,,,,,,,,,,,,,,,,,,,,0,,0,0,0,0,29,29,29,27,48.697918,48.75,48.854168,48.645832,48.958332,48.958332,48.958332,48.958332,0,0,0,0,14.7,14.8,14.6,14.8,0,0,0,0,0,0,0,0,0,0,180,0,0,0,0,0,,Manual,OTHER,NONE,GPS_POSITION_NONMATCH,FALSE,Connected,,P,FALSE,FALSE,FALSE,GPS_CONSIST_ERROR,0,0,0,,,,,15.146,0,0.12914608,12800,15.114,1.324,0,38,4.4,1,3777,0,0,0,0,0,FALSE,1,,,
32446748,-50.326,,,0,43.602528,0,-0.015220116,-0.010221086,-1.001901,1.0020688,0.8512563,-1.4722939,-3.1245992,3.5574439,-87,-202,1512,1527,0,0,0,0,0,NaN,0,0,0,NaN,NaN,NaN,0,-2.054552716,-1.168877866,-0.692275807,NaN,,0,,,32.49,0,0,,,,0,0,20151018,1,,,99.99,99.99,3.75E+07,0,0,0,,,,0,0,0,0,0,0,Manual,0,0,0,0,Manual,0,Hover,,lost,100,Disconnected,,,,,,,,,,,,,,,,,,,,,,,,,,,,,,,,,,,,,,0,,0,0,0,0,29,29,29,27,48.697918,48.75,48.75,48.645832,48.958332,48.958332,48.958332,48.958332,0,0,0,0,14.8,14.9,14.8,15,0,0,0,0,0,0,0,0,0,0,180,0,0,0,0,0,,Manual,OTHER,NONE,GPS_POSITION_NONMATCH,FALSE,Connected,,P,FALSE,FALSE,FALSE,GPS_CONSIST_ERROR,0,0,0,,,,,15.147,0,0.12914608,12800,15.114,1.324,0,38,4.4,1,3777,0,0,0,0,0,FALSE,1,,,
32597311,-50.293,,,0,43.735996,0,-0.04590324,0.002321059,-1.003112,1.0041643,0.023236478,-1.1323621,0.48013008,1.2301662,-104,-209,1512,1529,0,0,0,0,0,NaN,0,0,0,NaN,NaN,NaN,0,-2.077204135,-1.16991794,-0.716211829,NaN,,0,,,32.52,0,0,,,,0,0,20151018,1,,,99.99,99.99,3.75E+07,0,0,0,,,,0,0,0,0,0,0,Manual,0,0,0,0,Manual,0,Hover,,lost,100,Disconnected,,,,,,,,,,,,,,,,,,,,,,,,,,,,,,,,,,,,,,0,,0,0,0,0,29,29,29,27,48.697918,48.75,48.75,48.645832,48.958332,48.958332,48.958332,48.958332,0,0,0,0,14.6,15,14.9,14.9,0,0,0,0,0,0,0,0,0,0,180,0,0,0,0,0,,Manual,OTHER,NONE,GPS_POSITION_NONMATCH,FALSE,Connected,,P,FALSE,FALSE,FALSE,GPS_CONSIST_ERROR,0,0,0,,,,,15.148,0,0.12914608,12800,15.114,1.324,0,38,4.4,1,3777,0,0,0,0,0,FALSE,1,,,
32761163,-50.256,,,0,43.565277,0,-0.016424624,-0.015900753,-0.99910575,0.99936724,-0.25465506,-1.7196832,-0.7191421,1.8813093,-79,-202,1512,1527,0,0,0,0,0,NaN,0,0,0,NaN,NaN,NaN,0,-2.096502165,-1.171244301,-0.760091933,NaN,,0,,,32.53,0,0,,,,0,0,20151018,1,,,99.99,99.99,3.75E+07,0,0,0,,,,0,0,0,0,0,0,Manual,0,0,0,0,Manual,0,Hover,,lost,100,Disconnected,,,,,,,,,,,,,,,,,,,,,,,,,,,,,,,,,,,,,,0,,0,0,0,0,29,29,29,27,48.697918,48.75,48.854168,48.645832,48.958332,48.958332,48.958332,48.958332,0,0,0,0,14.6,14.8,14.8,14.8,0,0,0,0,0,0,0,0,0,0,180,0,0,0,0,0,,Manual,OTHER,NONE,GPS_POSITION_NONMATCH,FALSE,Connected,,P,FALSE,FALSE,FALSE,GPS_CONSIST_ERROR,0,0,0,,,,,15.149,0,0.12914608,12800,15.114,1.324,0,38,4.4,1,3777,0,0,0,0,0,FALSE,1,,,
32918994,-50.221,,,0,43.413185,0,-0.037481494,0.005907189,-1.0108002,1.0115122,-0.15754406,-1.0764832,-0.5938205,1.2394593,-98,-202,1507,1523,0,0,0,0,0,NaN,0,0,0,NaN,NaN,NaN,0,-2.11519773,-1.160884665,-0.801051768,NaN,,0,,,32.55,0,0,,,,0,0,20151018,1,,,99.99,99.99,3.75E+07,0,0,0,,,,0,0,0,0,0,0,Manual,0,0,0,0,Manual,0,Hover,,lost,100,Disconnected,,,,,,,,,,,,,,,,,,,,,,,,,,,,,,,,,,,,,,0,,0,0,0,0,29,29,29,27,48.697918,48.75,48.854168,48.645832,48.958332,48.958332,48.958332,48.958332,0,0,0,0,14.8,14.9,14.9,15,0,0,0,0,0,0,0,0,0,0,180,0,0,0,0,0,,Manual,OTHER,NONE,GPS_POSITION_NONMATCH,FALSE,Connected,,P,FALSE,FALSE,FALSE,GPS_CONSIST_ERROR,0,0,0,,,,,15.15,0,0.12914608,12800,15.114,1.324,0,38,4.4,1,3777,0,0,0,0,0,FALSE,1,,,
